@id	@lon	@lat	place	name	population
18058784	-80.4507012	43.2855122	village	Ayr	
18063533	-79.3839347	43.6534817	city	Toronto	2651717
18136619	-80.4127316	43.4749611	village	Breslau	
18354971	-82.5524942	42.2324646	village	Comber	
18886011	-75.6903080	45.4211060	city	Ottawa	934243
18996031	-79.8728583	43.2560802	city	Hamilton	519949
18998251	-80.3123023	43.3600536	city	Cambridge	129920
19188467	-89.2597960	48.4064140	city	Thunder Bay	108359
21542876	-77.3852556	44.1633264	city	Belleville	
21588608	-82.4065585	42.9746137	city	Sarnia	72366
21596054	-78.3199496	44.3048009	city	Peterborough	
24922221	-63.5859487	44.6486180	city	Halifax	403131
26235714	-79.0639039	43.1065603	city	Niagara Falls	93000
26348017	-79.2441003	43.1579812	city	St. Catharines	133113
26621545	-106.6607670	52.1318020	city	Saskatoon	246376
26658747	-106.6625543	52.2903172	town	Martensville	7716
26658779	-106.7321780	52.5245770	village	Hepburn	
26659105	-107.2386498	52.4050653	village	Borden	
26704533	-105.8159306	51.0515057	town	Craik	
26704924	-105.6925960	50.9385270	village	Aylesbury	
26726183	-104.6173100	50.4487600	city	Regina	215106
26878229	-114.0106200	51.2859700	city	Airdrie	54891
28859163	-96.8801880	50.1469860	city	Selkirk	9834
28880512	-106.5756230	52.3202320	town	Warman	11020
29054908	-114.4710708	51.1874627	town	Cochrane	26000
29546626	-115.5682504	51.1777781	town	Banff	7847
29546814	-113.7702564	50.3481989	town	Nanton	
29576831	-113.8181766	52.2697395	city	Red Deer	100418
29576832	-113.9494301	52.0200845	town	Innisfail	
29576833	-114.1130367	51.7923735	town	Olds	
29577298	-113.5871706	52.6794142	town	Ponoka	7229
29577371	-113.3998479	51.0435486	town	Strathmore	13305
29578098	-113.8569213	50.5797079	town	High River	
29578119	-113.4053475	49.7257568	town	Fort Macleod	
29660373	-111.8930050	50.5710270	city	Brooks	11604
29660485	-110.6790160	50.0430300	city	Medicine Hat	56997
29661151	-112.6168425	49.7255000	town	Coaldale	
29661152	-112.1436569	49.7932232	town	Taber	
29661168	-112.9275821	49.7468014	town	Coalhurst	
29700271	-114.2801274	51.4316173	village	Madden	
29702927	-114.6109373	51.5038925	village	Water Valley	
29702930	-114.0309938	51.4272738	town	Crossfield	2983
29702932	-114.4908728	51.5466917	village	Cremona	
29740800	-114.6394148	51.7971316	town	Sundre	
29772175	-114.9183995	52.3768803	town	Rocky Mountain House	7300
29772177	-112.7130208	52.3228746	town	Stettler	
29772178	-113.5400152	51.3849968	village	Beiseker	
29772180	-114.5043434	50.9904543	village	Redwood Meadows	
29772203	-114.1000016	51.5632160	town	Carstairs	4077
29772204	-114.1372475	51.6607926	town	Didsbury	
29772889	-114.0330476	51.9316614	town	Bowden	
29811182	-113.5079960	53.5354110	city	Edmonton	928182
29813588	-106.5363243	52.3668054	town	Osler	
29814281	-106.4176940	52.5112060	town	Hague	
29814283	-106.3352970	52.6638910	town	Rosthern	
29821218	-107.9846187	52.0576499	town	Biggar	
29821219	-107.2284917	52.1345075	town	Asquith	
29821265	-107.5447954	52.0561536	village	Perdue	
29852200	-113.8687036	52.1340412	town	Penhold	
29973390	-76.5794465	45.3891281	village	Burnstown	
29973391	-76.7257690	45.3021800	village	Calabogie	
30002542	-101.8933019	50.9000886	town	Churchbridge	
30002543	-102.4612430	51.2120450	city	Yorkton	15669
30087852	-76.3974630	44.6784620	village	Westport	
30087853	-76.3268609	44.9520918	village	Balderson	
30088320	-76.4239987	44.3800633	village	Sunbury	
30088321	-76.4728482	44.3873306	village	Inverary	
30088322	-76.5016333	44.3194010	village	Shannons Corners	
30189922	-123.3649533	48.4283182	city	Victoria	80017
30198915	-106.8150795	51.8901826	village	Pike Lake Provincial Park	
30915641	-71.2352226	46.8259601	city	Québec	530168
31024559	-114.9218261	50.0244558	town	Elkford	
31657008	-114.7717876	55.2810741	town	Slave Lake	6782
31910190	-123.8157964	48.9936579	town	Ladysmith	8537
31962166	-80.0973754	43.9193171	town	Orangeville	27975
32554332	-80.1084149	44.3271040	village	Creemore	
32827187	-63.6582365	44.7303901	city	Bedford	
32974679	-119.4982910	49.8893260	city	Kelowna	117312
33308006	-122.7453699	53.9128645	city	Prince George	71974
33309325	-130.2921229	54.2246496	village	Port Edward	570
33364832	-79.8056098	44.0225014	town	Tottenham	
33541039	-125.9047083	49.1529643	village	Tofino	1876
33541135	-125.1411440	48.8330860	village	Bamfield	155
33541136	-124.8056517	49.2343668	city	Port Alberni	17743
33660446	-79.8692321	44.1539369	town	Alliston	
33816074	-60.3453692	46.2657927	village	Millville	
33820776	-60.4300375	46.2456378	village	Dalem Lake	
33866289	-76.9505543	44.2473883	town	Napanee	15892
33943661	-59.1424188	47.5776635	town	Port Aux Basques	
33952810	-59.2037958	47.8170128	village	Benoit's Siding	
33952815	-59.2208438	47.6203174	village	Table Mountains	
33952816	-59.2383538	47.7874198	town	Codroy Valley	
33952817	-59.3026116	47.7105471	village	Wreckhouse	
33952824	-59.2639845	47.6622390	village	Twin Hills	
33977829	-60.9153167	46.0711623	town	Wagmatcook First Nation	
33978424	-61.0834558	45.9616603	village	Aberdeen	
33979236	-61.1659488	45.9386748	village	Iron Mines	
33979242	-61.2167149	45.9078763	village	Blues Mills	
33979245	-61.2313378	45.9012376	village	Upper River Denys	
34113175	-81.1177723	44.0427744	village	Mildmay	
34113188	-80.8690127	43.9118312	town	Harriston	
34600120	-75.6843332	44.5895925	city	Brockville	21870
34600121	-75.5128981	44.7104170	town	Prescott	
34699332	-68.3280940	47.3644090	city	Edmundston	
34705955	-67.9244707	47.1651978	town	Saint-Léonard	
34706110	-67.3906756	47.5129555	town	Saint-Quentin	
35237092	-77.6966026	44.1503615	village	Wooler	
35618848	-60.2470914	46.2105845	town	North Sydney	
35722034	-62.6483547	45.5869474	town	New Glasgow	
36010229	-61.4453528	45.6530417	village	Auld's Cove	
36015775	-61.3995899	45.6457246	village	Port Hastings	
36015803	-61.3595630	45.7013585	village	Lexington	
36015953	-61.3318678	45.7916432	village	Kingsville	
36248463	-60.9376252	46.0530152	village	St. Patrick's Channel	
36363878	-114.2385994	52.6417347	town	Rimbey	
36440326	-114.9832127	53.2205548	town	Drayton Valley	7049
36576733	-80.2493276	43.5460516	city	Guelph	131794
48038912	-75.8386342	45.1943303	village	Richmond	
51969275	-118.5985033	56.2479207	village	Hines Creek	
51969304	-117.5573798	49.4466502	village	Crescent Valley	
51969321	-112.0000000	51.7666670	village	Dowling	0
51969336	-111.5769440	54.3566670	village	Sugden	
51969342	-110.6352780	54.4288890	village	Lessard	
51969352	-113.3833330	54.4666670	village	Perryvale	
51969358	-112.1472220	54.6980560	village	Venice	
51969366	-118.4568507	49.0271754	town	Grand Forks	
51969370	-114.1910354	53.7038575	town	Onoway	
51969430	-114.3666670	51.8166670	village	Eagle Hill	
51969437	-112.2758330	54.1438890	village	Edwand	
51969440	-112.2249124	52.6712057	village	Heisler	
51969452	-118.2366343	56.0746870	village	Bluesky	
51969467	-113.6544038	50.2562009	village	Parkland	
51969472	-111.9638892	49.0017307	village	Coutts	
51969478	-113.9833330	54.4500000	village	Jarvie	
51969493	-116.3669810	50.9084777	village	Spillimacheen	
51969496	-118.3809196	56.0670906	town	Fairview	
51969512	-112.4166670	50.1666670	village	Enchant	
51969524	-115.7672772	49.5107477	city	Cranbrook	
51969531	-111.1833330	50.7500000	village	Jenner	
51969547	-110.7833330	53.1833330	village	Connolly	
51969555	-113.6288450	53.6332390	city	St. Albert	61466
51969585	-115.0628670	49.5041747	city	Fernie	
51969593	-117.6188698	55.7174283	village	Watino	
51969605	-113.0333330	49.0333330	village	Whisky Gap	
51969627	-114.2333330	54.1500000	village	Freedom	
51969639	-111.7911110	54.8858330	village	Tweedie	
51969648	-111.3463890	54.6394440	village	Snug Cove	
51969654	-111.6833330	51.5000000	village	Sheerness	
51969660	-111.9881365	51.8722242	village	Scapa	0
51969677	-117.7329774	56.1494070	village	Berwyn	
51969688	-110.2639150	52.3547862	town	Provost	
51969696	-112.9500000	51.3000000	village	Rosebud	
51969702	-113.3165704	49.2001157	town	Cardston	
51969709	-112.7532787	52.0340881	village	Big Valley	
51969716	-113.2966313	53.5256963	city	Sherwood Park	68782
51969724	-113.2666670	51.7000000	town	Three Hills	
51969742	-111.6757745	50.6994525	village	Patricia	
51969752	-110.4666670	50.8166670	village	Cavendish	
51969757	-110.2500000	51.6833330	village	Esther	
51969764	-111.2763890	54.1533330	village	Saint Vincent	
51969772	-113.1833330	49.2833330	village	Raley	
51969778	-113.3166670	54.5833330	village	Meanook	
51969785	-112.9530560	54.3294440	village	Newbrook	
51969797	-116.9049841	49.9106155	village	Kaslo	
51969806	-111.6804218	53.4084668	village	Ranfurly	
51969810	-110.5913890	54.1247220	village	Holyoke	
51969815	-112.7766670	54.2386110	village	Hollow Lake	
51969821	-111.8974710	49.8162139	village	Purple Springs	
51969828	-114.5500000	51.0666670	village	Jumping Pound	
51969852	-113.1514765	50.2427200	village	Champion	
51969855	-112.6269440	54.1808330	village	Barich	
51969861	-113.7550494	49.5492108	village	Brocket	
51969887	-117.6178026	56.8576341	village	North Star	
51969894	-111.4490001	52.0929552	town	Coronation	940
51969897	-110.9500000	50.8500000	village	Atlee	
51969901	-115.2394721	54.0067166	village	Green Court	
51969909	-112.7477385	52.1397814	village	Fenn	
51969927	-117.1333330	58.5166670	town	High Level	3641
51969937	-115.9819477	49.6850876	city	Kimberley	
51969938	-112.9802089	51.1124509	village	Standard	
51969941	-117.5500000	49.1166670	village	Fruitvale	
51969946	-113.2148942	53.7128571	city	Fort Saskatchewan	14685
51969958	-112.9281172	53.8019065	town	Bruderheim	1308
51969976	-113.2333330	52.2000000	village	Delburne	
51969996	-112.4451689	49.7633316	village	Chin	
51970004	-110.4677433	49.1211853	village	Onefour	
51970012	-111.5469073	52.7433563	village	Lougheed	
51970018	-117.1050405	55.7287386	village	Donnelly	
51970022	-119.3058973	52.1076940	village	Blue River	
51970034	-113.4333330	50.4666670	village	Ensign	
51970041	-112.8091670	54.5908330	village	Boyle	
51970058	-114.0045579	51.2156111	village	Balzac	
51970070	-112.0833330	51.1333330	village	Finnegan	
51970076	-111.7138890	54.3566670	village	McRae	
51970103	-110.6033330	54.2116670	village	Muriel Lake	
51970107	-111.2323198	52.9170290	village	Irma	
51970121	-112.6308733	53.1652425	village	Round Hill	
51970129	-112.3313018	53.8798431	village	Andrew	
51970136	-112.3633330	54.6536110	village	Noral	
51970163	-110.9045993	49.8773939	village	Seven Persons	
51970169	-112.5348044	51.5855868	village	Michichi	
51970181	-111.6166670	51.8500000	village	Spondin	
51970187	-113.6505600	51.2156206	village	Keoma	
51970192	-113.8906552	53.9493307	village	Busby	
51970197	-117.1339080	56.0388789	village	Nampa	
51970206	-113.8666670	54.2666670	village	Pibroch	
51970250	-113.1257139	54.0374839	village	Egremont	
51970256	-118.0723997	49.8714919	village	Fauquier	
51970264	-117.2833330	55.0666670	town	Valleyview	
51970281	-115.4314140	55.3290499	village	Kinuso	
51970305	-112.4050000	54.0047220	village	Pakan	
51970311	-112.7864689	54.0966569	village	Waskatenau	
51970315	-113.3333330	51.5000000	village	Grainger	
51970319	-113.3267739	50.7190916	village	Mossleigh	
51970335	-119.4666670	49.0333330	town	Osoyoos	4845
51970343	-116.0731320	52.4737361	village	Nordegg	200
51970362	-111.5680560	54.1297220	village	Ashmont	
51970375	-116.1000072	49.0833331	village	Yahk	
51970388	-111.1212876	52.0005599	village	Veteran	207
51970403	-114.1333330	54.0333330	village	Highridge	
51970411	-112.6019440	54.7544440	village	Frains	
51970429	-110.3333330	53.5166670	village	Marwayne	
51970443	-111.1690438	50.2482437	village	Ralston	
51970454	-112.7643778	51.6604571	village	Morrin	
51970478	-110.7541670	54.1411110	village	Gurneyville	
51970487	-111.0413890	55.7558330	village	Leismer	
51970500	-112.5225000	54.8797220	village	Blue Jay	
51970511	-113.2632357	50.4016332	town	Vulcan	
51970518	-111.9800960	54.7681587	town	Lac La Biche	
51970528	-111.6523060	50.4508998	village	Tilley	
51970582	-115.4229661	49.4164576	village	Wardner	
51970590	-112.9008330	54.5036110	village	Ellscott	
51970603	-110.2732606	49.9584438	village	Irvine	
51970622	-114.2000839	53.1939082	village	Sunnybrook	
51970628	-115.6379002	55.3172898	village	Faust	
51970633	-111.7265978	54.1393797	village	Spedden	
51970639	-114.2774695	52.3100965	village	Benalto	
51970650	-118.7838578	55.3497014	town	Sexsmith	
51970656	-111.9055311	50.7305674	village	Duchess	
51970659	-112.2656813	52.8680426	town	Daysland	
51970664	-112.4966670	55.0819440	village	Amesbury	
51970684	-112.4500000	52.7833330	village	Rosalind	
51970707	-111.9000000	52.2166670	town	Castor	929
51970727	-112.6666670	49.4666670	town	Raymond	
51970732	-116.0760592	50.6200728	village	Radium Hot Springs	
51970754	-114.7500000	58.4000000	village	Little Red River	
51970759	-116.4891525	51.3961113	village	Field	
51970765	-112.3399002	53.5940426	town	Mundare	
51970770	-111.1516670	54.1302780	village	Flat Lake	
51970783	-117.4660927	49.7678250	village	Slocan	
51970786	-110.8259251	52.4545715	village	Czar	
51970795	-114.6036060	52.3827381	village	Leslieville	
51970803	-114.3666670	52.8500000	village	Hoadley	
51970809	-114.2922547	52.7497903	village	Bluffton	
51970823	-113.4412968	52.4771595	village	Clive	
51970826	-113.1910398	52.1130540	village	Lousana	
51970837	-113.5083098	51.4988167	village	Acme	
51970855	-114.7391684	52.0943034	village	Caroline	
51970860	-112.8637496	49.4203199	town	Magrath	
51970865	-118.7707745	55.5924911	village	Woking	
51970872	-112.6666735	50.8166679	village	Crowfoot	
51970877	-114.1500000	54.6833330	village	Flatbush	
51970880	-115.8616945	50.3377592	village	Fairmont Hot Springs	
51970885	-111.0275000	54.1813890	village	Rife	
51970892	-113.2000000	55.2500000	village	Calling Lake	
51970900	-113.9750820	50.7253685	town	Okotoks	
51970904	-112.9666670	52.5833330	town	Bashaw	
51970909	-114.6799922	53.8200935	village	Cherhill	
51970918	-117.7974031	50.2396111	town	Nakusp	
51970929	-116.9613815	49.6170467	village	Procter	
51970936	-113.6000000	49.1333330	village	Mountain View	
51970943	-111.5920173	51.1074019	village	Pollockville	
51970959	-111.1059652	49.4765282	village	Etzikom	
51970963	-111.4994084	58.4499382	village	Embarras Portage	
51970966	-116.4836198	55.4325044	town	High Prairie	
51970974	-111.4916670	54.4872220	village	Helina	
51970985	-111.7771466	53.0972884	town	Viking	
51970989	-119.5852345	50.8720543	village	Squilax	
51970993	-113.5800285	50.0239458	town	Claresholm	
51970997	-113.6506625	53.8009283	town	Morinville	
51971004	-116.9617250	49.6249370	village	Balfour	
51971009	-112.7417766	52.2561391	village	Warden	
51971014	-118.0824291	52.8752336	town	Jasper	4590
51971024	-111.9194440	54.1161110	village	Vilna	
51971028	-117.6259235	56.9746270	village	Notikewin	
51971042	-114.8964250	53.8863436	village	Sangudo	
51971045	-112.5480560	54.8194440	village	Atmore	
51971049	-110.2969851	53.0337733	village	Paradise Valley	174
51971055	-117.2900390	49.4948910	city	Nelson	
51971074	-114.4714876	53.1107791	village	Breton	
51971080	-112.5116670	54.6316670	village	Caslan	
51971102	-110.8612063	52.8374281	town	Wainwright	
51971112	-112.9699509	52.7649092	village	Ferintosh	
51971132	-112.9833330	50.7166670	village	Shouldice	
51971137	-113.6031476	51.7939057	village	Torrington	
51971147	-112.1833330	50.9500000	village	Gem	
51971155	-114.7166670	53.5666670	village	Seba Beach	
51971164	-110.8666670	49.2000000	village	Pendant d’Oreille	
51971189	-112.0870812	50.7549317	village	Rosemary	
51971207	-111.1513890	54.2511110	village	Glendon	
51971216	-118.6186010	50.2446399	village	Cherryville	
51971222	-114.0733250	49.5690100	village	Cowley	
51971229	-117.6283082	49.2850536	village	Ootischenia	
51971237	-110.0084001	50.9552765	village	Empress	
51971245	-112.0500000	50.5833330	village	Cassils	
51971252	-111.2279257	53.6589875	village	Myrnam	
51971258	-111.2558330	54.2405560	village	Therien	
51971262	-118.9656007	50.2501374	village	Lumby	
51971270	-118.9449915	51.2392936	village	Seymour Arm	
51971277	-110.9030560	54.1822220	village	Hoselaw	
51971284	-114.2791366	50.6739717	town	Turner Valley	
51971287	-115.3781467	54.1222460	village	Blue Ridge	239
51971293	-111.3661110	54.2119440	village	Mallaig	
51971299	-113.0815280	49.9974930	village	Barons	
51971307	-110.8000000	51.4166670	village	Cereal	
51971318	-110.3327133	53.3418434	village	Kitscoty	
51971326	-112.0664866	52.5833330	village	Forestburg	
51971332	-117.6690911	56.5367700	village	Dixonville	
51971336	-113.8519902	54.1525241	town	Westlock	
51971359	-111.6029005	51.6084780	village	Stanmore	
51971396	-112.5552780	54.0366670	village	Northbank	
51971404	-111.3093794	52.6696007	town	Hardisty	
51971418	-112.4658831	50.7878642	town	Bassano	
51971436	-110.0088500	53.2799950	city	Lloydminster	
51971448	-112.0500000	53.5000000	town	Vegreville	5708
51971457	-117.8928112	56.1285564	village	Brownvale	
51971462	-110.7170534	53.5715357	village	Clandonald	
51971466	-113.9502919	49.4856670	town	Pincher Creek	
51971475	-112.9547220	54.4275000	village	Alpen Siding	
51971481	-112.3327780	54.0069440	village	Kahwin	
51971485	-111.7832364	52.4335554	village	Alliance	107
51971493	-115.9898321	50.4637179	village	Windermere	
51971497	-112.9465599	54.0603788	village	Radway	
51971513	-113.0166670	54.2333330	village	Abee	
51971520	-115.0364658	53.9146043	village	Rochfort Bridge	
51971527	-111.8600000	54.0369440	village	Stry	
51971533	-113.9164878	54.3438387	village	Dapp	
51971539	-111.4300000	54.1527780	village	Boscombe	
51971542	-111.9211110	54.5958330	village	Craigend	
51971550	-110.7752786	52.0094273	village	Consort	
51971582	-111.7358330	54.9950000	village	Imperial Mills	
51971592	-110.0833330	52.1500000	village	Bodo	
51971598	-112.3778947	49.4221676	village	New Dayton	
51971610	-116.9646541	51.2975903	town	Golden	
51971628	-117.6082752	56.1879236	town	Grimshaw	
51971635	-111.3000000	50.7333330	village	Iddesleigh	
51971640	-114.6333330	51.7000000	village	Bergen	
51971645	-114.2335483	50.6877950	town	Black Diamond	
51971648	-119.4286716	55.2106188	town	Beaverlodge	
51971663	-112.6368628	53.6981580	village	Chipman	
51971673	-111.6666670	51.2833330	village	Sunnynook	
51971682	-119.7500000	49.7666670	town	Peachland	
51971684	-112.7815590	53.7608030	town	Lamont	
51971690	-112.1511110	54.1430560	village	Bellis	
51971701	-119.2790529	50.7005059	city	Salmon Arm	17464
51971708	-119.1430460	55.1531181	town	Wembley	
51971714	-113.1876466	52.3973735	village	Alix	734
51971718	-119.6861773	50.8193356	village	Chase	2495
51971725	-112.6416420	50.3501400	village	Lomond	
51971729	-111.9269667	51.6428682	town	Hanna	2559
51971734	-119.5500000	49.1833330	town	Oliver	4824
51971740	-112.6686537	53.3699134	town	Tofield	
51971756	-113.9035030	53.5452040	city	Spruce Grove	18405
51971759	-117.5279357	49.4301801	village	Shoreacres	
51971763	-117.2910839	56.2337111	town	Peace River	6729
51971775	-115.6333330	49.6166670	village	Fort Steele	
51971791	-111.1756071	53.3373297	village	Mannville	
51971798	-118.0760124	56.1076496	village	Whitelaw	
51971803	-112.6788890	54.0072220	village	Delph	
51971810	-112.1833330	49.5166670	village	Wrentham	
51971818	-110.6538890	54.3955560	village	Big Meadow	
51971835	-112.6858330	54.8205560	village	Grassland	
51971842	-113.6000000	51.8666670	village	Wimborne	
51971845	-111.9125000	54.7597220	village	Beaver Lake	
51971868	-111.3762536	49.8680460	town	Bow Island	
51971885	-112.6883330	54.7625000	village	Sarrail	
51971888	-113.5511681	53.2607825	city	Leduc	31130
51971891	-110.4598579	52.7615002	village	Edgerton	
51971904	-117.6635740	49.3161710	city	Castlegar	
51971909	-110.0833330	52.9333330	village	Dina	
51972117	-117.3367287	55.7544638	village	Girouxville	
51972121	-111.2911140	53.9876467	town	St. Paul	5400
51972127	-113.1093485	49.8044701	village	Monarch	
51972138	-117.7130130	49.0990490	city	Trail	
51972184	-113.7292024	53.3647279	town	Devon	6578
51972191	-113.5954265	53.9487406	town	Legal	
51972199	-113.8000000	52.3833330	town	Blackfalds	
51972201	-119.8245226	49.2074507	village	Keremeos	
51972210	-112.0980560	54.4452780	village	Kikino	
51972219	-110.0833330	50.3333330	village	Schuler	
51972228	-111.7451245	53.7113163	town	Two Hills	
51972234	-110.8041670	54.2405560	village	Fresnoy	
51972239	-112.7000000	50.6333330	village	Majorville	
51972245	-112.1500000	52.2833330	village	Halkirk	
51972249	-111.7333330	52.1500000	village	Fleet	
51972270	-112.8500000	51.8500000	village	Rumsey	
51972278	-113.8500000	50.4500000	village	Cayley	
51972281	-112.6186110	54.0933330	village	Warspite	
51972324	-112.0480885	50.2785701	village	Scandia	
51972329	-110.5166670	53.7666670	village	Heinsburg	
51972335	-116.9011059	55.7108375	town	McLennan	
51972348	-111.9166670	52.5166670	village	Galahad	
51972354	-118.7936867	50.9377506	village	Malakwa	
51972361	-114.1027702	54.5454329	village	Fawcett	
51972367	-118.7906709	55.2623283	village	Clairmont	
51972377	-118.9826386	50.8367991	town	Sicamous	
51972383	-110.1438376	52.6939247	village	Chauvin	
51972403	-118.7827790	49.0129900	village	Midway	
51972416	-115.6500000	55.9166670	town	Atikameg	
51972421	-110.6833330	50.8000000	village	Buffalo	
51972428	-112.8041670	54.7480560	village	Donatville	
51972436	-111.3522220	54.3855560	village	Goodridge	
51972446	-110.6742256	53.8779601	village	Lindbergh	
51972459	-112.5769180	52.5838892	village	Donalda	
51972486	-111.8569101	52.7877367	town	Killam	
51972499	-115.7787348	55.3429600	village	Driftpile	
51972505	-111.2041822	51.5275917	village	Youngstown	
51972522	-112.1144684	53.8272186	village	Willingdon	
51972528	-118.2053707	49.0186213	village	Cascade	
51972530	-118.8376264	55.7774980	town	Spirit River	
51972535	-111.4453160	49.4770469	village	Foremost	
51972540	-110.2708330	54.3700000	village	Beaver River	
51972548	-113.2296510	51.8261473	town	Trochu	
51972553	-110.8542072	53.3527093	town	Vermilion	
51972557	-112.9236110	54.4261110	village	Alpen	
51972562	-117.3771836	49.9903309	village	New Denver	
51972570	-112.4333330	53.7500000	village	Krakow	
51972574	-112.9666670	51.4666670	village	Hesketh	
51972592	-112.2797220	55.0377780	village	Avenir	
51972597	-110.3066670	54.2036110	village	Beaverdam	
51972617	-112.9308330	54.7333330	village	Amber Valley	
51972638	-110.1928710	54.4604600	city	Cold Lake	11595
51972643	-112.1000000	50.0666670	town	Vauxhall	
51972652	-117.7999026	49.0784756	town	Rossland	
51972655	-110.8999785	53.8999368	town	Elk Point	
51972659	-113.6500000	54.0666670	village	Vimy	
51972663	-111.8677029	53.4591297	village	Lavoy	
51972670	-112.3552893	52.2958822	village	Gadsby	
51972672	-112.8025000	54.8641670	village	Spruce Valley	
51972691	-113.0500030	49.8835430	town	Nobleford	
51972726	-112.0833475	49.1514102	town	Milk River	
51972729	-113.5166670	49.3666670	village	Glenwood	
51972747	-112.8405760	53.0131310	city	Camrose	15850
51972754	-111.0500000	49.8833330	village	Whitla	
51972757	-110.6946331	49.4007037	village	Manyberries	
51972771	-112.8833330	50.5666670	village	Milo	
51972781	-112.2142813	54.6779958	village	Hylo	
51972788	-118.9986320	49.0580780	village	Rock Creek	
51972789	-115.2037287	49.0248373	town	Newgate	
51972796	-111.8902590	60.0058520	town	Fort Smith	2093
51972798	-110.5583330	54.5011110	village	Happy Hollow	
51972802	-112.2091410	49.2832350	village	Warner	
51972814	-113.6177721	50.6030153	village	Blackie	
51972819	-110.7351604	54.2677780	town	Bonnyville	
51972823	-110.6666670	51.6666670	village	Sedalia	
51972841	-112.4166670	52.2166670	village	Hackett	
51972846	-115.2374610	53.6101974	village	Wildwood	
51972852	-110.5733697	51.9786358	village	Monitor	
51972864	-111.0833330	51.7833330	village	Hemaruka	
51972870	-112.4936110	55.1411110	village	Breynat	
51972887	-110.5833330	49.9666670	village	Dunmore	
51972897	-112.5250820	49.5030590	village	Stirling	
51972904	-118.1440341	49.7812004	village	Edgewood	
51972910	-111.8000000	49.5000000	village	Skiff	
51972923	-113.6031873	51.3199963	town	Irricana	
51972933	-112.9272220	54.1813890	village	Weasel Creek	
51972945	-111.5472733	50.9054795	village	Wardlow	
51972950	-119.6666670	49.6000000	town	Summerland	
51972969	-115.1166707	49.3000043	village	Elko	
51972975	-112.7428120	51.5615463	village	Munson	
51972987	-111.4527780	54.2986110	village	Saint Lina	
51973013	-110.2755087	50.8801321	village	Bindloss	
51973015	-111.6378436	57.1825744	village	Fort MacKay	742
51973039	-111.9619164	54.9152213	village	Owl River	
51973047	-117.2787054	49.1934431	town	Salmo	
51973053	-111.1608664	50.2192746	village	Suffield	
51973063	-114.8500000	51.1666670	village	Morley	
51973067	-111.7316670	54.5805560	village	Normandeau	
51973086	-111.6902879	53.7865741	village	Duvernay	
51973093	-115.8076908	50.1596927	village	Canal Flats	700
51973104	-113.4506814	52.8345485	town	Maskwacis	
51973109	-119.9502809	50.6502092	village	Monte Creek	
51973115	-112.7046642	51.4662795	town	Drumheller	7932
51973134	-113.0500020	50.8666720	village	Gleichen	
51973142	-112.6931212	54.5992225	village	Bondiss	
51973149	-114.9912732	53.5933854	village	Entwistle	
51973153	-112.2333330	53.2333330	village	Holden	
51973173	-113.4684345	50.8516661	village	Carseland	
51973182	-119.2675780	50.2682770	city	Vernon	
51973195	-111.6233330	55.1755560	village	Philomena	
51973211	-111.6180560	54.5091670	village	Rich Lake	
51973226	-117.5702190	53.4046768	town	Hinton	9882
51973246	-115.6751169	54.1376057	town	Whitecourt	9605
51973251	-111.7000000	49.9333330	village	Bow River	
51973265	-112.4736110	54.1130560	town	Smoky Lake	
51973275	-111.7006880	49.8297588	village	Grassy Lake	
51973292	-110.7833330	50.0833330	town	Redcliff	5600
51973314	-112.5733330	54.7991670	village	Dakin	
51973323	-110.9833330	54.5333330	village	Garth	
52287126	-102.9391480	55.1686720	village	Pelican Narrows	
52287151	-108.4847974	55.8545883	village	Buffalo Narrows	1153
52287219	-106.2171940	52.0170080	village	Blucher	
52287224	-109.2261110	54.3997220	village	Goodsoil	281
52287232	-106.6000000	51.4166670	village	Hawarden	
52287269	-105.2091139	50.7149911	village	Bethune	
52287280	-105.7379150	52.6497290	town	Wakaw	
52287297	-103.3652949	52.8701872	village	Mistatim	
52287304	-108.1255707	55.1481205	village	Jans Bay	181
52287310	-102.0000000	51.2166670	village	Kessock	
52287319	-108.7333330	54.0352780	village	Morin Creek	
52287328	-108.9500000	52.1333330	village	Tramping Lake	
52287339	-106.7910341	52.9264436	village	Marcelin	
52287353	-107.5500000	53.6333330	village	Leoville	
52287365	-107.4471085	51.3325438	village	Dinsmore	
52287376	-108.9066670	54.0063890	village	Makwa	
52287396	-109.6500000	52.2333330	village	Denzil	
52287406	-104.2987576	49.4603066	town	Radville	
52287419	-105.9136960	51.1560930	village	Girvin	
52287424	-104.5333330	52.6666670	village	Silver Park	
52287432	-109.1002780	54.3263890	village	Golden Ridge	
52287438	-105.9472407	49.1793978	town	Rockglen	
52287448	-107.6481056	51.3157322	village	Wiseton	
52287476	-104.1833330	49.1333330	village	Lake Alma	
52287488	-107.7414073	49.7267416	village	Cadillac	
52287498	-107.0166670	50.6000000	village	Glen Kerr	
52287507	-102.9553494	49.8490806	village	Handsworth	
52287514	-107.4333330	52.0666670	village	Kinley	
52287523	-105.6497674	51.9499392	village	Viscount	
52287530	-107.4253641	51.8041976	village	Tessier	
52287547	-107.2996456	49.9081257	village	Vanguard	
52287564	-102.0986074	51.2020020	village	Barvas	
52287579	-105.3012080	55.1003730	town	La Ronge	2743
52287587	-108.0519440	54.2163890	village	Saint Cyr Lake	
52287597	-108.8551401	51.4694661	village	Netherhill	
52287613	-107.8068222	50.5969110	village	Stewart Valley	
52287620	-105.6231601	53.3954337	village	Henribourg	
52287628	-109.8333330	52.4000000	village	Evesham	
52287658	-102.2833330	49.8333330	village	Kenosee park	
52287661	-106.9666670	53.7500000	village	Bodmin	
52287664	-107.9500000	50.8000000	village	Matador	
52287667	-103.2045147	50.7256889	town	Lemberg	
52287674	-104.4500000	50.5666670	village	Zehner	
52287679	-102.5480259	49.0014500	village	North Portal	
52287684	-103.7333330	51.2666670	village	Kelliher	
52287688	-105.0666670	50.0166670	village	Avonlea	
52287701	-105.8808346	50.6787375	village	Keeler	
52287716	-104.7505190	49.6169390	village	Amulet	
52287721	-107.8666670	53.5500000	village	Junor	
52287730	-106.5747404	49.7036348	town	Laflèche	
52287736	-105.8833330	50.2666670	village	Lillestrom	
52287742	-102.5839950	50.3789235	town	Broadview	
52287745	-108.0798869	50.4602682	village	Success	
52287752	-108.4820673	51.7102841	village	Stranraer	
52287896	-102.6331656	50.1001332	town	Kipling	1140
52287908	-106.3500000	49.4666670	village	Flintoft	
52287914	-103.3245699	49.1441930	village	Outram Station	
52287915	-102.8166670	54.1000000	village	Pinebluff	
52287929	-104.0666670	52.0166670	village	Clair	
52287932	-103.4113919	49.3947073	town	Midale	
52287939	-104.9833330	52.4000000	village	Lake Lenore	
52287951	-106.2295530	52.8118930	town	Duck Lake	
52287954	-109.5449145	50.8878217	town	Leader	881
52287959	-107.4833330	49.7500000	town	Ponteix	
52287967	-103.4333330	49.8833330	village	Fillmore	
52287973	-102.7555988	51.7037827	village	Buchanan	
52287979	-109.1177816	49.9898154	village	Piapot	
52287987	-103.2604980	52.6030480	town	Porcupine Plain	
52287990	-108.1023968	49.9444175	village	Simmie	
52287999	-107.8205648	53.3661798	village	Belbutte	
52288003	-106.3874820	53.2224800	town	Shellbrook	
52288008	-107.5930015	50.3595061	village	Waldeck	
52288014	-108.3233330	55.0980560	village	Canoe Lake	
52288018	-107.1427366	51.6930645	village	Swanson	
52288022	-109.8000000	49.2166670	village	Govenlock	
52288028	-103.8333330	52.0833330	village	Hendon	
52288029	-107.2201894	50.4263165	town	Herbert	
52288032	-107.8972566	55.4330898	village	Ile-à-la-Crosse	1365
52288035	-109.4500068	51.4333368	village	Pinkham	
52288079	-103.6666670	49.7833330	village	Talmage	
52288084	-107.7500000	53.7833330	village	Chitek	
52288093	-108.4500000	50.4500000	village	Roseray	
52288096	-103.3942373	52.6105619	village	Chelan	
52288101	-109.1605560	54.0252780	village	Loon Lake	
52288104	-107.0721832	49.4211443	village	Mankota	
52288123	-104.5663274	55.4117751	village	Stanley Mission	
52288148	-109.2272220	54.2969440	village	Flat Valley	
52288154	-104.9500000	49.7333330	village	Edgeworth	
52288186	-104.3221558	50.1078439	village	Riceton	
52288192	-107.3833330	50.8833330	village	Beechy	
52288201	-108.6163330	59.5691140	village	Uranium City	
52288206	-102.1736665	49.2298181	town	Oxbow	
52288213	-108.4500000	52.2000000	village	Landis	
52288229	-104.8179606	50.4327125	village	Grand Coulee	
52288237	-106.3166670	53.5333330	village	Cookson	
52288246	-102.7542658	49.3770040	town	Lampman	
52288252	-104.3715121	49.9189149	village	Lang	
52288257	-102.8016670	51.2047913	village	Willowbrook	
52288272	-107.8666670	52.9333330	village	Whitkow	
52288279	-108.6280560	54.1802780	village	Four Corners	
52288286	-106.9666670	53.3000000	village	Hawkeye	
52288306	-107.7833330	54.2666670	village	Green Lake	
52288326	-109.6079166	51.4714769	village	Flaxcombe	
52288332	-107.7105662	52.5641084	village	Maymont	
52288354	-108.2500000	51.5000000	village	McGee	
52288364	-109.1365445	51.9158875	town	Kerrobert	
52288372	-108.4350590	54.1302600	city	Meadow Lake	
52288378	-105.7166670	50.4000000	village	Boharm	
52288385	-107.5166670	53.3666670	town	Spiritwood	
52288392	-105.4166670	49.3000000	village	Harptree	
52288402	-109.6302578	50.2209935	village	Golden Prairie	
52288411	-108.4500000	52.8666670	village	Highgate	
52288418	-108.7000000	53.4500000	village	Livelong	
52288428	-102.8089650	49.1434677	town	Bienfait	
52288436	-108.4000000	51.4833330	village	Fiske	
52288457	-105.7886760	54.0535649	village	Montreal Lake	
52288464	-106.2685679	49.6534232	village	Limerick	
52288475	-105.8010860	53.0172620	village	Red Deer Hill	
52288483	-107.7362337	50.1072330	village	Wymark	
52288505	-102.9910752	49.1428076	city	Estevan	11054
52288520	-103.6438310	52.7091705	village	Bjorkdale	
52288525	-105.4642839	51.6749485	town	Watrous	1743
52288530	-104.5055532	50.9387419	town	Southey	
52288539	-108.0710881	50.9888638	village	Sanctuary	
52288554	-109.7763890	54.1825000	village	Mudie Lake	
52288566	-106.8434140	49.6694050	village	Meyronne	
52288576	-106.9833330	53.6500000	village	Wrixon	
52288589	-102.0833330	49.6000000	village	Manor	
52288604	-105.4344180	51.0672910	village	Penzance	
52288616	-109.6666670	52.6500000	village	Yonker	
52288622	-109.8333338	50.0333331	village	Hatton	
52288635	-102.9935692	52.8657884	village	Prairie River	
52288640	-106.8691737	50.9018837	village	Riverhurst	
52288656	-106.5500000	50.9833330	village	Grainland	
52288661	-107.0717631	52.7879669	village	Krydor	
52288666	-105.7447810	51.7686900	village	Young	239
52288677	-104.6000000	49.7166670	village	Moreland	
52288690	-104.8634691	50.7499773	village	Valeport	
52288699	-105.4666670	51.5500000	village	Amazon	
52288706	-105.9666670	49.9333330	town	Mossbank	
52288713	-106.8802405	51.2021493	village	Dunblane	
52288722	-106.2171940	49.8672020	village	Mazenod	
52288737	-109.2666670	49.1166670	village	Arena	
52288743	-102.2633008	48.9996356	village	Northgate	
52288757	-105.1368542	50.2973024	village	Drinkwater	
52288764	-106.6511540	52.6172240	town	Waldheim	
52288784	-107.7474333	51.6162203	village	Zealandia	
52288803	-108.8166670	49.5166670	town	Eastend	
52288808	-105.0166670	51.4166670	village	Hatfield	
52288814	-103.8510130	49.6694050	city	Weyburn	10484
52288827	-106.0333330	49.8333330	village	Vantage	
52288836	-107.0084299	49.6683918	village	Kincaid	
52288840	-102.2673483	50.3313195	town	Whitewood	
52288842	-107.8833330	52.5333330	village	Baljennie	
52288844	-106.0333330	50.6333330	village	Lake Valley	
52288846	-105.8792412	51.9790793	town	Colonsay	475
52288853	-106.0166670	49.4833330	village	Maxstone	
52288871	-105.1719885	49.1005620	village	Big Beaver	
52288875	-105.7948472	52.8688975	village	Hoey	
52288878	-105.2500000	53.0000000	village	Brancepeth	
52288881	-103.4935104	49.1418116	village	Torquay	
52288886	-103.2628274	49.3157074	village	Macoun	
52288894	-108.7833330	52.6000000	village	Cloan	
52288896	-105.0500000	49.5500000	village	Glasnevin	
52288903	-104.5246426	52.1302113	town	Watson	
52288908	-108.8000010	50.0666713	village	Tompkins	
52288910	-109.1634954	51.2384819	village	Glidden	
52288915	-106.6851216	49.4215568	village	Glentworth	
52288920	-107.1321175	51.9210953	town	Delisle	
52288926	-107.5983813	52.9828473	village	Mayfair	
52288930	-105.6166670	49.8166670	village	Cardross	
52288934	-102.2666670	49.6333330	town	Carlyle	
52288947	-106.0608530	51.8970328	town	Allan	
52288950	-104.5280817	51.7516118	village	Dafoe	
52288959	-107.6106589	55.1456837	village	Beauval	756
52289254	-108.8333330	51.8000000	village	Dodsland	
52289257	-105.4330440	52.9842040	town	Birch Hills	
52289261	-106.3916020	50.7494900	village	Mawer	
52289263	-107.7166670	51.5166670	village	Sovereign	
52289270	-107.8005980	50.2858290	city	Swift Current	15503
52289273	-107.0588091	53.3054031	village	Shell Lake	
52289276	-107.5422444	52.5175183	village	Fielding	
52289286	-106.3859754	49.3702759	village	Wood Mountain	
52289289	-107.2405726	51.5273719	village	Conquest	
52289296	-108.7579928	50.7345503	village	Abbey	
52289299	-104.5844059	49.1652569	village	Minton	
52289304	-104.4963287	52.4165073	town	Naicam	
52289310	-104.1601280	49.8061795	town	Yellow Grass	
52289312	-109.0263890	54.1222220	village	Loon River	
52289319	-108.0500000	53.3666670	village	Cater	
52289328	-108.9516670	55.8822220	village	Saint George’s Hill	
52289329	-109.6522220	54.3555560	village	Beacon Hill	
52289335	-109.3666670	52.3000000	village	Reward	
52289340	-107.4666670	52.8000000	village	Keatley	
52289348	-108.0333330	51.2000000	town	Elrose	
52289357	-109.4619861	49.9070773	town	Maple Creek	
52289361	-105.7597565	52.1012901	village	Meacham	
52289414	-107.3500000	50.5833330	village	Main Centre	
52289422	-104.1833330	51.7666670	town	Wynyard	
52289432	-109.5000000	52.6166670	village	Winter	
52289446	-105.4000000	52.8666670	village	Waitville	
52289531	-105.7337950	52.7836620	village	Domremy	
52289534	-107.0333330	53.8333330	town	Big River	
52289543	-105.2631404	50.1649743	village	Briercrest	
52289546	-108.4985087	59.5553090	village	Eldorado	
52289551	-105.0792333	52.7828123	village	Meskanaw	
52289561	-103.7000000	49.4000000	village	Goodwater	
52289567	-103.5315944	51.6472380	town	Foam Lake	
52289571	-104.6333330	50.0500000	village	Corinne	
52289578	-108.5166670	52.3000000	village	Wolfe	
52289583	-103.8365937	52.3764311	village	Nora	
52289587	-102.0827512	54.6663862	town	Denare Beach	820
52289591	-104.4713137	52.8670938	village	Naisberry	
52289596	-104.9568557	51.0704195	town	Strasbourg	
52289603	-105.5333330	53.4166670	village	Albertville	
52289607	-108.3833330	52.9666670	village	Prince	
52289611	-109.7990027	50.9420281	village	Estuary	1
52289617	-105.9933360	49.6281690	town	Assiniboia	
52289619	-102.1639247	51.0392889	town	Saltcoats	
52289623	-104.9155469	49.5794909	town	Ogema	
52289637	-104.9928117	51.3111278	town	Govan	
52289642	-106.5000000	52.8166670	village	Carlton	
52289645	-109.8833330	50.4166670	village	Horsham	
52289649	-108.2150779	50.8791875	village	White Bear	
52289664	-105.4333330	51.2333330	village	Stalwart	
52289668	-105.6225590	49.5118350	village	Verwood	
52289670	-109.8833330	51.4333330	village	Merid	
52289673	-105.5808974	50.5745325	village	Tuxford	
52289678	-103.6666670	50.5333330	town	Indian Head	
52289683	-102.3500000	50.0166670	village	Kennedy	
52289688	-103.8674930	49.8849020	village	Cedoux	
52289696	-105.6666670	52.2833330	village	Totzke	
52289701	-104.0336610	53.1171090	village	Armley	
52289709	-104.6040794	49.4661025	village	Ceylon	
52289715	-108.4611856	50.6187301	town	Cabri	
52289720	-106.1333330	51.3666670	village	Bladworth	
52289723	-102.4480186	51.4590390	village	Gorlitz	
52289728	-105.4499957	51.9086298	village	Plunkett	75
52289731	-106.7000000	53.2666670	village	Ordale	
52289736	-102.2666054	53.9503989	village	Cumberland House	800
52289739	-106.9333330	51.4833330	village	Broderick	
52289746	-103.2114453	51.5872695	village	Sheho	
52289749	-105.7296750	52.4852890	town	Cudworth	
52289754	-105.0331377	51.8457609	town	Lanigan	
52289758	-108.2000000	50.1833330	village	Webb	
52289762	-103.5845950	53.2841010	town	Carrot River	
52289777	-103.2333330	51.3500000	village	Parkview	
52289787	-102.2937443	50.0485422	village	Langbank	
52289796	-104.7175600	51.7839840	village	Jansen	
52289821	-102.2643895	51.2095456	village	Tonkin	
52289828	-103.8000000	51.9500000	town	Wadena	
52289833	-105.4500000	51.4500000	village	Simpson	
52289838	-106.9906856	52.1076283	village	Grandora	
52289841	-108.6919072	52.0603408	village	Handel	
52289851	-108.0833330	53.3000000	village	Medstead	
52289856	-102.4910256	49.6342440	town	Arcola	
52289859	-107.1333330	53.5166670	village	Pascal	
52289865	-105.6240828	50.2800703	village	Archive	
52289874	-107.3519145	52.7256333	town	Hafford	
52289880	-107.7000000	53.6833330	village	Penn	
52289883	-102.9456663	50.1599895	village	Peebles	
52289892	-106.2698485	51.5012245	village	Kenaston	
52289895	-103.4333330	49.6666670	village	Griffin	
52289898	-105.1231093	52.2020709	city	Humboldt	5678
52289903	-106.4385372	51.6290586	town	Hanley	
52289912	-103.9666670	51.5500000	village	Wishart	
52289916	-105.5638877	53.5073657	village	Paddockwood	
52289924	-104.2537040	52.0725531	village	Quill Lake	
52289930	-102.9666670	52.5833330	village	Somme	
52289942	-105.6349180	49.3913120	village	Willow Bunch	
52289948	-109.1581355	51.4687094	town	Kindersley	
52289956	-107.7000000	52.0166670	village	Keppel	
52289961	-109.4833330	50.4666670	village	Fox Valley	
52289970	-108.3376975	55.0830710	village	Cole Bay	230
52289973	-109.4334410	56.4837290	village	La Loche	2611
52289977	-107.4560511	49.9336369	village	Pambrun	
52289981	-107.7712418	53.1398723	village	Rabbit Lake	
52289998	-106.3849928	50.1348432	village	Coderre	
52290002	-109.4750000	54.0355560	village	Whelan	
52290005	-102.6779001	49.6474029	village	Kisbey	
52290019	-105.7000000	49.9333330	village	Mitchellton	
52290027	-103.2333330	56.3333330	village	Southend	
52290036	-105.2500000	50.8666670	village	Dilke	
52290050	-109.5166670	52.1666670	village	Salvador	
52290067	-108.6166670	51.9500000	village	Kelfield	
52290070	-106.5987523	53.3599968	village	Canwood	
52290073	-106.7485564	50.0101220	village	Bateman	
52290086	-107.5500000	52.0333330	village	Leney	
52290091	-102.4272509	49.2100260	village	Frobisher	
52290096	-109.7769440	54.3402780	village	Pierceland	449
52290101	-103.6601260	53.1055680	town	Arborfield	
52290108	-106.1500000	50.8000000	village	Eyebrow	
52290117	-106.4000000	52.9166670	village	Wingard	
52290124	-105.6000000	49.1833330	village	Hart	
52290127	-106.5557573	49.8751033	town	Gravelbourg	
52290139	-102.1955432	51.3553362	village	Rhein	
52290144	-103.5228082	52.1643973	town	Kelvington	
52290149	-106.9747360	52.0020563	village	Vanscoy	
52290158	-102.0763357	50.6536237	town	Esterhazy	
52290171	-107.5200394	51.4858925	village	Milden	
52290178	-106.0836102	53.9221422	village	Waskesiu Lake	
52290183	-105.9845963	51.2647972	town	Davidson	
52290188	-105.6882757	50.1044689	village	Crestwynd	
52290193	-107.3833330	53.6000000	village	Capasin	
52290198	-109.2048274	53.6309457	town	Saint Walburg	
52290210	-105.1333330	52.1166670	village	Bay Trail	
52290214	-108.7530146	51.1493598	town	Eston	1000
52290217	-104.9427800	49.9070180	village	Truax	
52290220	-107.8500000	51.8000000	village	Valley Centre	
52290232	-108.6283330	54.3552780	village	Dorintosh	
52290262	-106.0674947	50.4537478	village	Mortlach	
52290267	-105.4002706	49.9434919	village	Spring Valley	
52290271	-105.1560989	50.3942989	village	Belle Plaine	
52290275	-105.3647247	53.4452948	village	Meath Park	
52290278	-104.4649062	53.1013437	village	Gronlid	
52290282	-107.3333330	53.3500000	village	Mildred	
52290284	-109.9955999	51.3755142	village	Alsask	151
52290288	-108.1500000	51.3333330	village	Gunworth	
52290307	-106.0000000	50.2000000	village	Old Wives	
52290312	-106.7333330	53.4333330	village	Polwarth	
52290317	-107.7297293	49.2442748	village	Val Marie	
52290322	-106.0000000	53.0166670	village	Macdowall	
52290325	-106.6571408	50.4603632	village	Chaplin	
52290330	-107.6818873	52.3854899	village	Sonningdale	
52290335	-103.0261084	49.6794164	town	Stoughton	
52290340	-104.8333330	52.1833330	village	Saint Gregor	
52290345	-108.7068761	52.4095307	town	Wilkie	
52290350	-107.1894840	59.3282860	village	Fond-du-Lac	
52290367	-109.7413076	51.6225899	village	Hoosier	
52290370	-109.9077194	50.6557742	town	Burstall	
52290378	-103.2401762	52.0631030	village	Lintlaw	
52290380	-105.5429080	50.4015150	city	Moose Jaw	33890
52290387	-108.3778128	51.9722116	village	Springwater	
52290408	-107.6666670	53.0833330	village	Mullingar	
52290411	-105.8166586	50.4561945	village	Caronport	
52290419	-104.0666670	49.3666670	village	Neptune	
52290425	-108.6166670	50.3166670	village	Verlo	
52290439	-108.7166670	49.6000000	village	South Fork	
52290443	-106.7000000	50.6166670	village	Halvorgate	
52290447	-107.5011351	52.2571786	village	Arelee	
52290452	-106.5986872	51.1191284	village	Elbow	
52290454	-108.1533330	55.1675000	village	Canoe Narrows	716
52290462	-106.0666670	53.2166670	village	Crutwell	
52290468	-105.3833330	50.3666670	village	Pasqua	
52290473	-105.1189768	53.4613854	village	Foxford	
52290496	-106.2900807	52.3271538	town	Aberdeen	
52290500	-105.1268010	49.3957810	village	Bengough	
52290504	-104.9000000	52.5000000	village	Daylesford	
52290506	-106.8936088	50.4459610	village	Ernfold	
52290510	-108.9666670	52.0500000	village	Broadacres	
52290513	-103.8121910	52.1941501	village	Fosston	
52290518	-108.0000000	53.2500000	village	Glenbush	
52290528	-107.8000000	49.1500000	village	Masefield	
52290533	-107.7666670	50.5000000	village	Leinan	
52290540	-106.0946058	52.3218585	town	Vonda	
52304484	-108.2533330	54.0783330	village	Cabana	
52304490	-105.9166670	52.7833330	village	Saint-Isidore-de-Bellevue	
52304500	-105.3833330	49.0666670	village	East Poplar	
52304510	-103.7166670	52.8500000	village	Crooked River	
52304517	-108.9371187	55.9294234	village	Dillon	
52304524	-108.7500000	51.3166670	village	McMorran	
52304529	-108.3004760	52.7761860	city	North Battleford	13888
52304538	-103.8000000	52.9833330	village	New Osgoode	
52304554	-109.4620026	53.5366497	village	Paradise Hill	
52304567	-103.8219456	49.2472266	village	Tribune	
52304572	-105.0086980	51.5104520	village	Nokomis	436
52304578	-105.4500000	52.6333330	village	Reynaud	
52304581	-109.0166670	51.2166670	village	Madison	
52304586	-109.2277819	54.3472881	village	Peerless	
52304593	-105.7489010	53.2010970	city	Prince Albert	35129
52304600	-102.0241117	49.9041649	town	Wawota	
52304605	-108.8097220	54.1505560	village	Rapid View	
52304608	-102.9166670	51.4333330	village	Theodore	
52304621	-107.7032659	52.6953733	village	Richard	
52304629	-104.8659902	50.9861732	village	Bulyea	
52304637	-108.3566522	51.6353464	village	Herschel	
52304642	-106.0166670	52.5166670	village	Alvena	
52304648	-107.8166670	50.1833330	village	Dunelm	
52304651	-109.6333330	56.4833330	village	La Loche West	
52304654	-109.2452062	51.7106410	village	Coleville	
52304664	-102.2833330	49.2666670	town	Alameda	
52304671	-102.4833330	52.9000000	village	Alticane	
52304676	-103.9295139	52.6134298	village	McKague	
52304693	-109.3905249	52.0831985	town	Luseland	
52304706	-106.8770352	53.5250250	village	Debden	
52552987	-123.4136049	48.4299051	town	Esquimalt	16209
52552999	-123.6229791	48.6538128	village	Shawnigan Lake	8127
52553010	-123.7315177	48.3825724	town	Sooke	11435
52553020	-124.1949460	48.8728450	village	Youbou	966
52553027	-123.3983246	48.6505788	town	Sidney	11178
52553033	-124.4174190	48.5502510	village	Port Renfrew	139
52553047	-123.5046662	48.4497693	city	Langford	35342
52553051	-123.4492490	48.7697670	village	Fulford Harbour	
52553057	-123.5067250	48.8550232	town	Ganges	
52553066	-123.3000000	48.8500000	village	Mayne	1071
52553080	-124.0562815	48.8259486	town	Lake Cowichan	2974
52553085	-123.6264040	48.7417010	village	Cowichan Bay	2971
52553094	-123.6003110	48.6837080	village	Cobble Hill	4796
52553101	-123.5352348	48.3796009	town	Metchosin	4803
52553269	-132.8000000	59.2000000	town	Nakina	
52553282	-123.0340840	51.9171633	town	Hanceville	
52553285	-129.8333330	55.4166670	town	Anyox	
52553291	-123.6419373	49.4212583	town	Roberts Creek	1867
52553296	-129.2333330	59.1833330	town	McDame	
52553298	-122.6901534	49.2207623	town	Pitt Meadows	18573
52553310	-124.4833370	54.5672850	town	Pinchi	
52553313	-126.9166670	50.5833330	village	Alert Bay	445
52553329	-133.5346980	58.6333610	town	Tulsequah	
52553331	-121.8000000	52.2333330	town	Ochiltree	
52553335	-128.9000000	53.0333330	town	Surf Inlet	
52553340	-126.5020750	52.3999050	village	Hagensborg	
52553355	-121.6666670	51.8666670	town	Wright	
52553359	-126.7533870	52.3714070	town	Bella Coola	1919
52553370	-121.8281529	50.8829520	village	Pavilion	
52553394	-127.5209435	51.5115514	town	Wadhams	
52553401	-128.6540519	54.0535577	city	Kitimat	
52553404	-126.1666670	53.8000000	town	Streatham	
52553412	-126.8666670	50.9166670	town	Sullivan Bay	
52553443	-121.7666670	49.2333330	town	Agassiz	6067
52553449	-125.2732050	50.0643530	village	Duncan Bay	
52553453	-127.5877527	55.2454266	village	New Hazelton	
52553466	-123.1139529	49.2608724	city	Vancouver	603502
52553477	-121.3000000	57.1333330	town	Nig Creek	
52553491	-121.2956943	51.6427866	town	100 Mile House	
52553502	-133.7043181	59.5744934	town	Atlin	
52553508	-122.9725459	49.2433804	city	Burnaby	232755
52553524	-126.4816162	59.5554984	town	Fort Halkett	
52553527	-121.9373634	52.1166842	village	150 Mile House	
52553541	-121.5166749	53.0666687	village	Barkerville	
52553554	-133.6166670	59.3333330	town	Pike	
52553569	-129.9911761	55.9383088	town	Stewart	
52553573	-125.0767348	50.3359002	town	Church House	
52553590	-121.1833330	55.7166670	town	East Pine	
52553603	-130.2948756	54.2376569	town	Watson Island	
52553605	-122.6852602	58.7437075	town	Muskwa	
52553608	-122.5333265	53.3499949	town	Strathnaver	
52553636	-125.0319702	49.6184754	town	Cumberland	3398
52553641	-122.4936273	52.9794279	city	Quesnel	10007
52553649	-131.1579821	57.9044519	town	Telegraph Creek	
52553656	-123.2666670	53.9500000	town	Isle Pierre	
52553669	-122.2735483	52.3291501	town	Soda Creek	
52553683	-127.7500070	55.1499985	town	Carnaby	
52553687	-120.6166670	56.0166670	town	Pine Valley	
52553692	-122.1332079	51.9579656	town	Springhouse	
52553698	-124.3117397	49.3179514	city	Parksville	12514
52553720	-127.2319698	51.6803940	village	Rivers Inlet	
52553723	-130.0166754	54.1833377	town	Haysport	
52553727	-128.6952210	53.1599470	town	Butedale	
52553730	-135.0479946	59.7152970	town	Fraser	
52553737	-122.4333330	59.0333330	town	Snake River	
52553740	-128.3196898	55.0178868	town	Cedarvale	
52553755	-125.9833330	55.4833330	village	Takla Landing	
52553759	-124.0027976	59.4849628	town	Nelson Forks	
52553765	-127.6166670	59.1500000	town	Chee House	
52553768	-123.0500000	53.7666670	town	Mud River	
52553798	-127.5166670	51.0333330	town	Allison Harbour	
52553801	-121.5816010	50.2311317	village	Lytton	
52553816	-126.3002010	54.5075290	town	Topley	
52553822	-126.4844093	50.7598620	town	Simoom Sound	
52553827	-120.6867691	56.1592270	town	Taylor	
52553851	-127.6957979	55.3501405	village	Kispiox	
52553883	-120.1334529	51.1891346	village	Barrière	
52553889	-120.7594786	49.5459942	village	Tulameen	
52553894	-123.2060050	49.6263920	village	Britannia Beach	
52553910	-121.4166670	52.3333330	village	Horsefly	
52553918	-126.0833330	50.4833330	town	Port Neville	
52553924	-132.0806738	59.5332688	town	Galbraith	
52553928	-127.0166670	50.6333330	village	Sointula	576
52553930	-125.3666670	50.4500000	town	Thurlow	
52553934	-127.4880980	50.4268930	town	Port Alice	805
52553939	-130.4500000	54.0666670	town	Hunts Inlet	
52553964	-130.1000000	54.0666670	town	Claxton	
52553968	-125.7508850	50.5169190	town	Jackson Bay	
52553981	-125.7000000	50.6833330	town	Knight Inlet	
52553995	-120.9573984	56.2762089	village	Charlie Lake	
52553999	-134.2464954	59.5000147	town	Engineer	
52554015	-128.1452077	52.1625615	town	Bella Bella	
52554026	-125.2099641	50.0412750	village	Quathiaski Cove	
52554049	-122.4500000	52.6333330	town	Alexandria	
52554052	-120.2062612	51.4252892	village	Little Fort	
52554997	-129.9634767	54.1591553	town	Port Essington	
52555756	-120.5103862	50.1597102	village	Quilchena	
52555772	-134.6666670	59.6500000	town	Teepee	
52555791	-122.4166670	52.4500000	town	Macalister	
52555792	-129.9954981	58.4378352	town	Dease Lake	
52555796	-120.5500000	55.6000000	town	Fellers Heights	
52555813	-120.1640704	53.3041960	village	McBride	
52555819	-126.0333330	53.7833330	town	Ootsa Lake	
52555827	-125.8833330	53.9500000	town	Grassy Plains	
52555832	-133.8166670	59.6000000	town	Scotia Bay	
52555836	-127.8669095	51.8608300	town	Namu	
52555838	-124.8170470	50.0342090	village	Bliss Landing	
52555851	-132.0140720	53.2486284	village	Skidegate	
52555856	-123.0178843	54.0984237	town	Chief Lake	
52555872	-129.2530821	53.4256494	town	Hartley Bay	
52555882	-128.5500000	54.3666670	town	Lakelse	
52555896	-133.1166670	59.9166670	town	Lemieux	
52555899	-124.7608464	49.9821689	village	Lund	
52555909	-121.3242108	50.8131736	town	Cache Creek	
52555918	-126.6174320	55.3174240	town	Babine	
52555933	-124.4833330	49.3000000	village	Hilliers	1503
52555946	-129.9333330	54.9333330	town	Nass Harbour	
52555949	-124.8439627	54.0602917	town	Fraser Lake	
52555956	-124.5666670	53.8833330	town	Lily Lake	
52555966	-123.5089186	49.4006197	town	Gibsons	4605
52555967	-131.9334410	53.5835380	village	Tlell	183
52555977	-122.6939592	58.8062848	town	Fort Nelson	
52555982	-127.2833330	50.9166670	town	Port Progress	
52555986	-130.2586893	53.9478750	village	Oona River	
52555989	-124.8666670	59.3833330	town	Toad River Post	
52555993	-127.3299556	55.0214050	town	Witset	
52555998	-122.6439739	54.2819565	village	Summit Lake	
52556005	-121.3436517	50.4230896	village	Spences Bridge	
52556009	-129.2222648	55.1931888	village	Gitwinksihlkw	201
52556027	-127.5000000	51.3166670	town	Margaret Bay	
52556037	-122.8404524	50.8520571	village	Gold Bridge	
52556040	-126.3166670	50.6166670	town	Minstrel Island	
52556047	-121.4413515	49.3799438	town	Hope	6181
52556061	-122.8293424	49.2822243	city	Port Moody	33551
52556063	-123.6166670	53.0000000	town	Nazko	
52556072	-121.4320040	49.5636550	village	Yale	
52556081	-121.5865244	51.0916698	village	Clinton	450
52556085	-123.0833330	53.8666670	town	Bednesti	
52556093	-126.3166670	55.0500000	town	Old Fort	
52556096	-128.6500000	53.9666670	town	Kitimat Mission	
52556113	-125.0518800	50.1064880	village	Whaletown	
52556119	-124.2596983	54.4446952	village	Fort St. James	
52556124	-125.6166670	57.4166670	town	Ware	
52556128	-126.5000000	56.8833330	town	McConnell Creek	
52556136	-126.1558986	54.8202476	village	Fulton River	
52556159	-129.1049737	54.3849649	town	Exstew	
52556164	-122.7805425	49.2621643	city	Port Coquitlam	58612
52556169	-123.9381220	49.1638770	city	Nanaimo	90504
52556174	-127.3666670	55.1000000	town	Seaton	
52556180	-122.3294792	49.0521162	city	Abbotsford	145100
52556187	-130.4306050	54.5545800	town	Lax Kw'alaams	
52556196	-133.1333330	58.9000000	town	Inklin	
52556201	-123.8468816	49.1746559	town	Gabriola	4045
52556215	-126.2005472	50.9523521	town	Kingcome Inlet	
52556220	-125.3166670	50.3666670	town	Nodales	
52556223	-123.9578388	49.1001033	village	Extension	267
52556227	-122.6565102	54.0943860	town	Salmon Valley	
52556258	-125.3018190	52.4618670	village	Anahim Lake	
52556271	-124.5574950	49.7582030	village	Van Anda	
52556274	-122.1397346	52.1290810	city	Williams Lake	
52556296	-123.9095731	49.5134025	village	Halfmoon Bay	
52556304	-125.0235585	54.0875238	town	Endako	
52556308	-133.4166670	59.6166670	town	Surprise	
52556313	-126.6633504	49.9149408	village	Tahsis	316
52556322	-125.5333330	50.5166670	town	Roy	
52556331	-124.5561220	54.0666420	town	Fort Fraser	
52556335	-124.9833330	49.3166670	village	Great Central	
52556353	-134.4666670	59.4166670	town	Ben-My-Chree	
52556360	-124.6219972	49.7948750	village	Blubber Bay	
52556363	-126.2833330	53.8333330	town	Wistaria	
52556369	-125.8333330	53.6833330	town	Marilla	
52556374	-124.7676090	54.6500020	town	Tachie	
52556377	-128.0676270	55.1003730	town	Kitwanga	
52556395	-127.6899720	52.3504410	town	Ocean Falls	
52556402	-127.3833330	55.1500000	town	Beament	
52556413	-128.7934109	54.8364640	town	Rosswood	
52556416	-123.2770457	52.0838964	village	Alexis Creek	90
52556422	-130.6000000	54.0166670	town	Refuge Bay	
52556464	-122.5818723	53.4172584	town	Hixon	
52556481	-130.4502870	54.3365450	town	Metlakatla	
52556518	-122.4733597	54.0746224	village	Willow River	
52556540	-123.0419616	54.9889973	village	McLeod Lake	
52556569	-120.8433240	50.7534762	village	Savona	
52556584	-130.0000000	54.9666670	town	Arrandale	
52556590	-129.9500000	55.0000000	town	Kincolith	
52556601	-123.2166670	53.4500000	town	Punchaw	
52556607	-121.3936001	51.3134959	village	70 Mile House	
52556629	-124.4439409	49.3479861	town	Qualicum Beach	8687
52556654	-126.2666670	50.5666670	town	Cracroft	
52556660	-128.5208130	52.5880320	town	Klemtu	
52556897	-128.5995482	54.5172715	town	Terrace	
52556898	-122.8666700	53.8166701	town	Beaverley	
52556919	-125.1240590	54.8699701	town	Middle River Village	
52556923	-123.1594791	49.3311208	city	West Vancouver	42473
52556927	-128.2000000	55.0666670	town	Woodcock	
52556932	-120.1398733	55.8979789	village	Rolla	
52556946	-120.0771620	49.3557500	village	Hedley	
52557034	-127.6708824	55.2553671	village	Hazelton	
52557040	-121.9140470	56.0259608	town	Hudson's Hope	
52557098	-99.5333330	51.0500000	town	Sainte-Rose-du-Lac	
52557108	-101.5115585	50.0739017	town	Fleming	
52557123	-101.8833330	51.2166670	village	Wroxton	
52557127	-101.3784708	54.5863636	village	Cranberry Portage	572
52557142	-101.8500000	52.8333330	village	Armit	
52557150	-100.8500000	49.3166670	town	Napinka	
52557157	-96.5666670	50.4333330	town	Beaconia	
52557165	-101.2832312	50.6253639	village	Binscarth	
52557174	-96.8294204	51.6654403	town	Little Bullhead	
52557181	-98.7000000	51.6000000	town	Fairford	
52557195	-97.8333330	53.9666670	town	Norway House	
52557200	-100.6957375	49.2564406	town	Medora	
52557210	-95.4166670	49.8833330	town	Decimal	
52557216	-100.5333330	49.9833330	town	Harding	
52557241	-100.0231569	49.4064427	town	Minto	
52557256	-100.4886384	51.1490673	town	Gilbert Plains	
52557280	-97.0183065	52.3569899	town	Berens River	
52557283	-98.7000000	49.6333330	town	Treherne	
52557289	-98.9510661	50.2254903	town	Gladstone	879
52557296	-101.8727438	49.3889663	village	Alida	
52557302	-97.4833330	51.3833330	town	Dallas	
52557305	-95.9000000	49.6666670	town	Reynolds	
52557309	-96.2000000	51.1333330	town	English Brook	
52557319	-98.6333330	54.9166670	town	Wabowden	
52557324	-101.7015535	50.8417915	town	Langenburg	
52557334	-101.3500000	51.2333330	town	Roblin	
52557356	-101.1500000	51.2166670	village	Bield	
52557362	-100.2342492	50.0310937	town	Rivers	
52557370	-97.7670504	49.1879876	village	Plum Coulee	843
52557376	-100.3187754	53.7042681	town	Mosakahiken Cree Nation	1137
52557380	-97.9979113	49.6763969	town	Elm Creek	
52557390	-98.9509754	49.1464500	town	Crystal City	
52557479	-99.4864750	49.1349543	village	Holmfield	
52557520	-98.3500000	51.3166670	town	Spearhill	
52557528	-99.7798139	54.7840631	town	Herb Lake	
52557531	-101.0333330	50.1333330	village	Miniota	
52557548	-101.7833330	49.7333330	village	Mair	
52557559	-101.9529534	49.9697172	village	Kelso Station	
52557560	-95.5508420	50.3007440	village	Pointe du Bois	
52557562	-97.6577818	50.2065712	village	Woodlands	
52557564	-100.1500000	52.0166670	town	Camperville	
52557567	-101.2405153	53.8224172	town	The Pas	5513
52557575	-98.5388162	49.2398981	village	Manitou	808
52557578	-101.0833330	55.1166670	village	Sherridon	
52557581	-96.9986993	50.9970846	village	Riverton	
52557585	-95.9666670	50.3500000	town	Lettonia	
52557595	-100.0350624	50.1198326	town	Rapid City	
52557599	-101.4333330	50.7500000	village	Harrowby	
52557602	-96.0666670	49.8833330	town	Lewis	
52557607	-97.4420227	50.0634652	village	Grosse Isle	
52557611	-95.1979060	49.6267250	town	Waugh	
52557617	-101.3117980	55.7479850	village	Pukatawagan	
52557896	-99.7826902	51.0634750	town	Ochre River	
52557945	-101.5259408	49.8351336	village	Maryfield	
52558982	-100.5000000	49.1833330	town	Deloraine	
52559367	-99.4908113	50.7690890	town	McCreary	
52560146	-101.0334489	50.2603215	village	Beulah	
52560164	-98.3333330	51.1833330	town	Ashern	
52560168	-101.7972633	49.1748399	town	Carnduff	
52560176	-101.3000000	50.4500000	village	Saint Lazare	
52560358	-99.0833330	50.3833330	town	Plumas	
52560945	-101.6866847	50.6035960	village	Spy Hill	
52561017	-100.5296669	51.7860880	town	Pine River	
52561100	-97.7500000	59.4166670	town	Caribou	
52561176	-100.0442500	51.1535090	city	Dauphin	8251
52561268	-98.6666670	50.3833330	town	Langruth	
52561366	-99.9718797	50.6578384	town	Wasagaming	
52561442	-97.0500144	49.5000076	village	Otterburne	
52561451	-97.2165818	50.5753667	town	Malonton	
52561463	-100.9904623	49.2691138	town	Melita	
52561475	-101.8305164	54.7536334	village	Channing	
52561485	-101.0927553	49.5566746	village	Reston	
52561491	-97.2666670	50.3833330	town	Teulon	
52561496	-97.9376220	49.1870890	city	Winkler	10670
52561501	-97.3166670	49.6000000	town	Domain	
52561508	-101.9741103	50.2660680	town	Wapella	
52561511	-101.5500000	51.9166670	village	Benito	
52561518	-96.2921615	51.1031853	town	Manigotagan	
52561521	-101.8181476	54.2798254	village	Sturgeon Landing	
52561531	-97.1384584	49.8955367	city	Winnipeg	663617
52561534	-99.4500000	50.1500000	town	Hallboro	
52561540	-100.6000000	50.1833330	town	Hamiota	
52561543	-101.7833330	54.6666670	village	Schist Lake	
52561547	-96.0258248	50.1042976	village	Seven Sisters Falls	
52561552	-95.6833330	50.4000000	town	Bird River	
52561558	-100.6891005	52.7397329	town	Pelican Rapids	
52561573	-98.5666670	50.1333330	town	Westbourne	
52561577	-97.2224831	50.9038419	town	Arborg	
52561580	-100.3166670	50.5333330	town	Elphinstone	
52561587	-101.0462012	50.4218411	town	Birtle	
52561589	-98.4221172	51.2890500	town	Moosehorn	
52561595	-101.2499873	50.9476934	village	Inglis	
52561600	-101.3626100	50.0262700	village	Kirkella	
52561604	-100.1666670	52.2000000	town	Duck Bay	
52561607	-98.7333330	50.6000000	town	Amaranth	
52561612	-99.1000000	50.1333330	town	Helston	
52561621	-100.6000000	54.2166670	town	Cormorant	
52561623	-99.6333330	49.4000000	town	Ninette	
52561629	-99.4500000	49.5833330	town	Stockton	
52561632	-100.7666670	50.1333330	town	Arrow River	
52561635	-97.2646544	49.6909481	town	La Salle	
52561746	-100.5166670	49.4833330	town	Hartney	
52561751	-95.2657150	54.9512846	town	Bunibonibee Cree Nation	2424
52561763	-95.9766181	49.9541656	town	Whitemouth	
52561817	-100.5911707	50.4378995	town	Shoal Lake	
52561824	-101.6979903	49.5727567	town	Redvers	
52561829	-101.6689683	49.7849789	village	Ryerson	
52561835	-97.2192172	50.0877777	village	Stony Mountain	
52561839	-99.4666670	50.6833330	town	Norgate	
52561842	-99.1166670	51.3666670	town	Guynemer	
52561844	-99.1166670	49.3666670	town	Greenway	
52561847	-98.1833330	50.9666670	town	Mulvihill	
52561851	-97.0500000	49.3499999	town	Dufrost	
52561856	-101.4333330	51.3166670	village	Deepdale	
52561865	-97.5670027	51.2137683	town	Hodgson	
52561870	-98.6166670	51.7666670	town	Gypsumville	
52561874	-100.7000000	51.1666670	town	Grandview	
52561875	-95.2130130	49.7475560	town	West Hawk Lake	
52561880	-98.9000000	49.2000000	town	Pilot Mound	
52561887	-98.5500000	49.5333330	town	Notre-Dame-de-Lourdes	
52562238	-101.7500000	51.1500000	village	Calder	
52562251	-97.5000000	50.5000000	village	Inwood	
52562266	-98.1014567	49.1927055	city	Morden	7812
52562300	-101.8000000	51.5166670	village	Côte	
52562348	-96.9539347	51.7225568	town	Matheson Island	
52562359	-98.8666670	50.7000000	town	Harcus	
52562395	-100.9674024	49.3992726	town	Bede	
52562399	-96.2666670	49.1000000	town	Sundown	
52562451	-98.8000000	49.4000000	town	Swan Lake	
52562465	-98.0333330	50.5000000	town	Oak Point	
52562478	-98.3166670	50.1833330	town	Delta	
52562482	-101.2368812	49.7311543	village	Cromer	
52562501	-99.4637261	50.2319353	town	Neepawa	3629
52562513	-95.2400927	50.8710996	town	Beresford Lake	
52562519	-100.5833330	50.5666670	town	Oakburn	
52562533	-100.8108155	50.6682846	town	Rossburn	
52562551	-97.5692367	50.7833784	village	Chatfield	
52562553	-99.9166670	51.6500000	town	Winnipegosis	
52562556	-98.4669787	50.0580387	village	Macdonald	
52562573	-97.9500000	50.4166670	town	Saint-Laurent	
52562576	-100.6666670	49.3833330	town	Lauder	
52562578	-97.5615993	49.0078780	village	Gretna	556
52562598	-95.8833330	50.1500000	town	Pinawa	1416
52562603	-98.1000000	50.8666670	town	Eriksdale	
52562610	-100.3955365	50.4044635	town	Strathclair	
52562617	-99.5000000	51.3166670	town	Magnet	
52562631	-101.8789670	54.7698010	city	Flin Flon	5363
52562643	-97.6975769	49.5100797	town	Sperling	
52562646	-97.3666670	49.5333330	town	Osborne	
52562653	-99.6000000	51.3833330	town	Rorketon	
52562662	-100.2711841	49.4465310	town	Elgin	
52562685	-101.8333330	49.8833330	village	Walpole	
52562690	-97.5298504	50.6831350	town	Narcisse	
52562707	-101.6715086	57.8808266	village	Brochet	
52562714	-100.2000000	50.3500000	town	Newdale	
52562716	-98.9365049	49.9487121	town	Austin	
52562726	-98.9833330	50.8000000	town	Alonsa	
52562731	-99.4692355	50.3761006	town	Eden	
52562738	-101.6690594	50.1443787	town	Moosomin	
52562744	-95.4560850	52.0178530	town	Little Grand Rapids	
52563083	-96.5577763	50.7069714	town	Victoria Beach	
52563087	-101.7166670	49.3833330	village	Nottingham	
52662570	-71.6594817	45.4828558	town	East Angus	
53496200	-72.1479030	45.2654630	town	Magog	26669
58984741	-75.6484220	45.1549270	village	Kars	
60697504	-75.1832200	44.8967410	town	Morrisburg	
60713519	-76.2331436	44.4765986	village	Seeley's Bay	
60789407	-75.6882480	45.2328330	village	Manotick	
61095797	-81.6659957	45.2566537	village	Tobermory	3740
61097209	-79.4175587	44.6092059	city	Orillia	30546
61097505	-80.0337392	45.3436067	town	Parry Sound	
68636555	-82.6517529	46.2086647	village	Spragge	
68637269	-82.9563900	46.1883880	town	Blind River	
68639323	-82.8196518	46.1861188	village	Algoma Mills	
68643247	-83.2202252	46.2789817	town	Iron Bridge	
68643696	-83.3830444	46.2998537	town	Huron Shores	
68644788	-83.5483478	46.2638311	town	Thessalon	
68669527	-81.1408154	44.7438271	town	Wiarton	
68674508	-80.9430094	44.5678105	city	Owen Sound	21688
68679784	-80.5916531	44.6069298	town	Meaford	
68681074	-80.4501139	44.5616963	town	Thornbury	7025
68684871	-80.0904451	44.4194642	town	Stayner	
68735777	-80.1945416	44.3979390	village	Duntroon	
68743226	-80.2529709	44.3494984	village	Singhampton	
68743391	-80.1877396	44.3604224	village	Glen Huron	
68986015	-75.7165345	45.1332585	village	North Gower	
70555320	-84.7740199	47.9929283	town	Wawa	
81362197	-80.4158132	46.4521659	village	Hagar	
81373199	-77.6945748	46.1770206	village	Rolphton	
81384572	-85.2844723	48.5932963	town	White River	
81386205	-86.3758954	48.7162203	town	Marathon	
81395298	-79.0054320	45.3270480	village	Lake of Bays	
81435922	-81.0279572	44.1520712	town	Hanover	
81439200	-80.7338237	43.9806979	town	Mount Forest	
82228731	-113.5095841	50.5159199	village	Brant	
82228897	-114.2307840	50.5329990	village	Longview	
84941554	-71.8890380	45.4032710	city	Sherbrooke	161323
90416858	-72.3410147	45.6596873	village	Durham-Sud	
90421425	-72.5647484	45.6478478	town	Acton Vale	
90436171	-72.9406360	45.6274840	city	Saint-Hyacinthe	53200
90460110	-72.1657822	45.3126711	village	Canton d'Orford	
90483955	-72.6177899	45.1109765	village	Sutton	
90485996	-72.7218340	45.3990409	city	Granby	66222
91705556	-77.1150645	45.8255395	city	Pembroke	16146
93887876	-73.4891644	45.4174659	town	La Prairie	24110
96223684	-68.5218570	63.7494400	city	ᐃᖃᓗᐃᑦ	7740
96699164	-73.8067442	45.4566767	town	Pointe-Claire	
98875745	-73.7510888	45.4453082	town	Dorval	
98879474	-73.8654387	45.4289766	town	Beaconsfield	
98882241	-73.8647559	45.4529194	town	Kirkland	
98890785	-73.9153643	45.4174258	town	Baie-d'Urfé	3850
98896591	-73.9461485	45.4092897	town	Sainte-Anne-de-Bellevue	
98898352	-73.9603253	45.4145430	village	Senneville	
100011674	-73.5163824	45.3867947	town	Candiac	21500
104588712	-73.4678904	45.4554829	town	Brossard	
107350257	-69.8740448	62.8475134	town	ᑭᒻᒥᕈᑦ Kimmirut	480
107350394	-124.0585164	69.3450380	town	Paulatuk	294
107350410	-133.0319049	69.4440189	town	Tuktoyaktuk	929
107350416	-82.9015251	76.4187720	village	ᐊᐅᔪᐃᑦᑐᖅ Grise Fiord	
107350681	-92.5891577	62.1736717	town	ᑎᑭᕋᕐᔪᐊᖅ Whale Cove	350
107350737	-90.7105317	63.3347904	town	ᐃᒡᓗᓕᒑᕐᔪᒃ Chesterfield Inlet	360
107350802	-115.1073221	67.8260952	town	ᖁᕐᓗᖅᑐᖅ Kugluktuk	1200
107350814	-77.2709185	60.0393864	town	ᐳᕕᕐᓂᑐᖅ Puvirnituq	1692
107350836	-126.8327253	65.2824010	town	Norman Wells	
107350864	-133.7203869	68.3602632	town	Inuvik	3463
107350898	-133.7448158	67.4416254	village	Tsiigehtchic	145
107350903	-83.1700761	64.1343432	town	ᓴᓪᓕᖅ Coral Harbour	834
107350928	-71.9499736	61.6020339	town	ᑲᖏᖅᓱᔪᐊᖅ Kangiqsujuaq	552
107350938	-110.7346434	62.4065739	village	Łutsel K'e	300
107351074	-77.9574381	72.6976743	town	ᒥᑦᑎᒪᑕᓕᒃ Pond Inlet	1617
107351241	-85.1685446	73.0323154	town	ᐃᒃᐱᐊᕐᔪᒃ Arctic Bay	690
107351278	-115.7866099	60.8155874	town	Hay River	3606
107351327	-125.2495786	71.9880972	town	Sachs Harbour (Ikaahuk)	122
107351338	-75.6397109	62.1972958	town	ᓴᓪᓗᐃᑦ Salluit	1347
107351425	-94.0564966	61.1073126	town	ᐊᕐᕕᐊᑦ Arviat	2060
107351467	-68.5888051	70.4683885	town	ᑲᖏᖅᑐᒑᐱᒃ Clyde River	900
107351482	-113.6735624	61.1705889	village	Fort Resolution	
107351502	-125.5719263	64.9019115	village	Tulita	500
107351525	-93.5361599	69.5329643	town	ᑕᓗᕐᔪᐊᕐᒃ Taloyoak	500
107351548	-135.0135855	68.2182579	town	Aklavik	594
107351556	-92.0868012	62.8030269	town	ᑲᖏᕿᓂᖅ Rankin Inlet	2577
107351567	-69.6310759	61.0407114	town	ᖁᐊᖅᑕᖅ Quaqtaq	376
107351600	-65.7178541	66.1490118	town	ᐸᖕᓂᖅᑑᖅ Pangnirtung	1481
107355286	-105.0615077	69.1126414	town	Iqaluktuuttiaq Cambridge Bay	1477
107355397	-89.8122665	68.5347371	town	ᑰᒑᕐᔪᒃ Kugaaruk	500
107355530	-95.8642528	68.6291774	town	ᐅᖅᓱᖅᑑᖅ Gjoa Haven	900
107355671	-77.9094024	62.4130501	town	ᐃᕗᔨᕕᒃ Ivujivik	414
107361871	-68.3928985	49.1260796	village	Chute-aux-Outardes	
107362093	-55.3436280	49.1421900	town	Botwood	
107362104	-87.6269530	55.9953090	town	Fort Severn	550
107362131	-66.4855806	49.1264098	town	Sainte-Anne-des-Monts	
107362141	-59.1773419	55.0842630	town	ᒪᖂᕕᒃ Makkovik	
107362183	-57.4301509	49.1825441	town	Deer Lake	
107362338	-83.2619479	49.6127343	village	Mattice	
107362425	-55.0593570	49.2462930	town	Lewisporte	
107362537	-54.7546065	49.3360435	town	Birchy Bay	
107362580	-64.1488920	50.2663510	village	Longue-Pointe-de-Mingan	
107362762	-66.8818986	50.0256962	town	Port-Cartier	
107362781	-57.0198174	53.7062458	town	Cartwright	516
107362799	-57.2018488	51.4121624	village	Lourdes-des-Blanc-Sablon	
107362913	-55.5837053	52.2724965	village	Battle Harbour	
107363006	-61.8174062	50.1839077	village	Natashquan	264
107363059	-64.0287906	50.2920564	village	Mingan	409
107363077	-79.2259227	56.5421614	town	ᓴᓂᑭᓗᐊᖅ Sanikiluaq	800
107363099	-64.4772087	49.0517685	village	Saint-Maurice-de-l'Échouerie	
107363223	-67.5961300	49.3233320	village	Godbout	
107363298	-78.5061084	52.2402823	town	ᐄᔅᒣᐃᓐ  Eastmain	767
107363353	-53.5720830	49.0729660	village	Greenspond	
107363380	-78.7498924	51.4775538	town	ᐙᔅᑳᐦᐄᑲᓂᔥ Waskaganish	2200
107363597	-66.8206260	54.8005133	town	Schefferville	237
107363710	-60.1472749	53.5380898	town	North West River	
107363790	-82.4333330	49.4166670	town	Kapuskasing	8200
107363797	-66.3790642	50.2109579	city	Sept-Îles	25686
107363832	-92.0897947	55.8608747	town	Shamattawa	1019
107363858	-58.4311727	54.1779029	town	ᑭᑭᐊᖅ Rigolet (Kikiaq)	310
107363870	-82.0402338	49.3101561	village	Fauquier	
107363879	-93.9962770	51.8145580	town	Pikangikum	
107363932	-91.6548160	49.4127600	town	Ignace	1202
107364077	-56.4250913	51.7326783	village	Red Bay	
107364092	-80.6506350	51.2670710	town	Moosonee	1725
107364109	-57.3672274	50.7158982	town	Port au Choix	
107364169	-77.7576525	55.2845992	town	ᑰᔾᔪᐊᕌᐱᒃ Kuujjuarapik	657
107364220	-77.6182408	53.7930223	town	Radisson	
107364289	-68.2496323	49.1606204	village	Pointe-Lebel	
107364301	-68.1523130	49.2175970	city	Baie-Comeau	22113
107364339	-94.3011470	52.1005961	village	Poplar Hill	473
107364420	-84.7752864	49.2181387	town	Hornepayne	
107364485	-55.2667240	49.0837610	town	Norris Arm	
107364502	-88.2610663	49.0155918	town	Nipigon	
107364606	-92.8358460	49.7856980	city	Dryden	7617
107364752	-68.4038778	58.1066864	city	ᑰᔾᔪᐊᖅ Kuujjuaq	2576
107364779	-78.1124276	58.4536824	town	ᐃᓄᒃᔪᐊᒃ Inukjuak	1683
107364956	-73.8755504	50.4150125	town	ᒥᔅᑎᓯᓃ Mistissini	3285
107365040	-65.9531992	58.6933642	town	Kangiqsualujjuaq	
107365315	-55.8377319	52.3097092	town	Mary’s Harbour	417
107365461	-63.6003951	50.2463647	village	Havre-St-Pierre	
107365503	-58.9687809	50.8337972	village	La Tabatière	
107365509	-61.6965963	56.5414634	town	ᓄᓇᔾᓐᒍᒃ Nain (Nunajnguk)	
107365519	-55.8325200	49.5359040	town	Port Anson	
107365599	-56.8666670	49.5333330	town	Hampden	650
107365641	-81.0173030	49.0666680	town	Cochrane	
107365649	-54.7640990	49.6489590	town	Twillingate	5000
107365748	-93.8273620	51.0189380	town	Red Lake	1274
107365793	-80.6094360	51.2584770	village	Moose Factory	2458
107365799	-56.0180249	49.7510610	village	Burlington	
107365972	-53.6163276	49.1282033	town	Valleyfield	
107365994	-89.8905535	53.8231082	town	Big Trout Lake	904
107366039	-55.7735698	52.5569702	town	Williams Harbour	
107366069	-55.4989086	49.0120002	town	Bishops Falls	3341
107366079	-90.7085560	50.2373819	village	Savant Lake	
107366113	-89.0373698	50.3021310	town	Armstrong	
110499084	-73.4419936	46.0239798	city	Joliette	20484
118352636	-73.3508635	46.0138485	village	Saint-Thomas	
121867754	-71.6811172	45.2048060	village	Sainte-Edwidge-de-Clifton	
121883230	-71.8034790	45.1334169	town	Coaticook	
123945810	-71.8041195	45.5337174	village	Stoke	
126921416	-72.0483400	45.5337700	village	Saint-François-Xavier-de-Brompton	
127951767	-73.4209830	46.0995503	village	Notre-Dame de Lourdes	
128653005	-73.2195681	45.9592895	village	Lanoraie	
128761764	-73.4246401	46.1700019	village	St-Félix de Valois	
129999186	-66.0580440	45.2787520	city	Saint John	70063
130147202	-97.1820390	49.5668153	town	Sainte Agathe	
130147254	-97.3408438	49.2656096	town	St. Jean-Baptiste	
130147489	-97.0385481	49.6056380	town	Niverville	
130147529	-96.9875647	49.7092075	town	Ile des Chenes	
130147834	-96.9853340	49.4402719	town	Saint-Pierre-Jolys	
130219208	-71.6789250	48.3918260	village	Hébertville	
130221169	-71.7837417	48.4082729	village	Lac-à-la-Croix	
133311026	-97.0324495	49.7743258	village	Grande Pointe	
135886081	-72.0475284	45.2496697	village	Sainte Catherine de Hatley	
135888106	-71.9721220	45.2756110	village	North Hatley	
136203926	-96.9424568	50.0858311	town	Lockport	
136210305	-96.9695793	50.5059397	town	Winnipeg Beach	1011
137532533	-72.8307720	46.2824280	village	Yamachiche	
137537112	-72.8802110	46.3947790	village	Saint-Barnabé	
137541889	-72.8287120	46.5052460	village	Saint-Boniface	4832
141094569	-122.7435757	48.9881108	village	Blaine	
146305018	-79.8585358	42.9497266	town	Cayuga	
146305735	-79.9519084	43.0737943	town	Caledonia	
146315150	-80.0517133	42.9619760	town	Hagersville	
148041406	-115.1384100	53.9523674	town	Mayerthorpe	1398
151364293	-93.4105904	48.6010330	city	International Falls	6424
151380684	-97.5548000	48.9861027	village	Neche	416
151436648	-80.2034310	44.0784730	town	Shelburne	
151515024	-81.4448953	45.1025314	village	Miller Lake	
151621512	-102.5496127	48.9958637	village	Portal	117
151704153	-97.2048930	48.9988390	village	Noyes	
151933240	-93.3487580	48.6129910	village	Ranier	174
156782658	-79.7966835	43.3248924	city	Burlington	160000
156801478	-79.7599337	43.6858146	city	Brampton	593638
156801489	-79.6443879	43.5896231	city	Mississauga	721599
158690180	-73.7368010	45.2190500	village	Saint-Urbain-Premier	
158690182	-73.6808400	45.3004900	village	Saint-Isidore	
158810363	-71.7961053	45.0094923	village	Norton	231
158814624	-68.1519797	47.3053186	village	Grand Isle	503
158842659	-67.7939057	47.0658780	village	Hamlin	250
158846234	-67.4297210	45.5634002	village	Vanceboro	138
158853089	-67.1094283	45.0781324	village	Robbinston	512
158853506	-66.9905090	44.9064690	town	Eastport	1584
158856142	-66.9843290	44.8607360	village	Lubec	1282
158876069	-67.4047167	45.1570187	village	Woodland	952
158915640	-67.3166591	45.1361861	village	Baring	259
158928635	-71.8907550	45.2770610	village	Waterville	
158970630	-72.0409880	45.1673528	village	Ayer's Cliff	1100
159714541	-72.0158562	45.7852780	town	Danville	
159720540	-72.0692830	45.8579780	village	Kingsey Falls	
159726256	-71.9906620	45.9456590	town	Warwick	
159736023	-71.8751852	46.1722898	town	Princeville	
159913368	-71.5011399	45.4736374	village	Bury	
159915619	-71.0910689	45.8385077	village	Lambton	
159917419	-70.9847260	45.8737560	village	Courcelles	
159919100	-70.9380340	45.9614130	village	La Guadeloupe	
159919636	-70.9538270	46.0598910	village	Saint-Éphrem-de-Beauce	
159920612	-70.9050750	46.1482050	village	Saint-Victor	
159922751	-70.7742690	46.2107250	town	Beauceville	
159941287	-70.8633274	45.3845717	village	Saint-Augustin-de-Woburn	695
173700518	-71.5001662	45.1997482	village	Saint-Malo	
173706197	-71.4607814	45.1253161	village	Saint-Venant-de-Paquette	
177056412	-73.4790045	45.3584499	village	Saint-Philippe	
177197151	-73.5413403	45.3749509	town	Delson	
177198238	-73.5704589	45.3724897	town	Saint-Constant	27359
177199993	-73.5756074	45.4006420	town	Sainte-Catherine	17047
179028272	-73.5184480	45.3125630	village	Saint-Mathieu	
185871579	-73.7460510	45.3104440	town	Mercier	
187570374	-112.7818771	49.8759706	town	Picture Butte	
187574892	-112.8417925	49.8537374	village	Shaughnessy	
187574901	-112.8411947	49.7954949	village	Diamond City	
191522230	-120.6741487	50.1616711	village	Nicola	
194318363	-74.2799380	46.0460720	town	Sainte-Agathe-des-Monts	
194569472	-73.6137878	45.9336200	village	Saint-Alexis-de-Montcalm	
199267291	-73.4738160	45.9637990	village	Crabtree	
199276550	-73.5696171	45.9478798	village	Saint-Jacques	
199353706	-73.7586793	45.8524052	village	Saint-Lin-Laurentides	
199358374	-73.8991887	45.8187180	village	Sainte-Sophie	14000
199569515	-73.4463225	45.9842686	village	Saint-Paul	
199627071	-73.4802940	46.0164693	village	Saint-Pierre	
199797900	-70.9843830	46.5593320	village	Sainte-Hénédine	
201012732	-113.8214140	51.0449653	town	Chestermere	19887
202583194	-73.2876515	45.5262460	town	Saint-Basile-le-Grand	17059
202635309	-71.3665010	46.5102080	village	Saint-Gilles	
202635419	-71.4351650	46.5628730	village	Saint-Agapit	
204462923	-66.6458130	45.9664250	city	Fredericton	58220
204466183	-64.8001100	46.0979950	city	Moncton	
204466916	-65.4949950	47.0326950	city	Miramichi	
204469820	-64.8010731	46.0565313	town	Riverview	
204472031	-65.4813350	45.7110918	village	Sussex Corner	
204472728	-65.8357469	45.5306487	town	Hampton	
204473230	-65.9879398	45.3815475	town	Rothesay	
204473556	-66.2025166	45.3221951	town	Grand Bay - Westfield	
204474093	-66.1465550	45.7744432	village	Gagetown	
204475252	-66.6831403	45.8934401	village	New Maryland	
204475501	-66.7524339	45.9041525	village	Hanwell	
204475948	-66.7734623	45.9997991	village	Douglas	
204476334	-67.2410679	45.9914512	town	Nackawic	
204476732	-67.0070398	45.7300127	village	Harvey Station	
204477060	-67.3262120	45.5892718	town	McAdam	
204477237	-67.5734710	46.1503460	town	Woodstock	5254
204478552	-66.4170933	46.4541554	village	Boiestown	
204478611	-66.1311055	46.5574196	village	Doaktown	
204479489	-65.8313847	46.7351305	village	Blackville	
204480380	-65.7987690	46.8099052	village	Renous	
204480457	-65.6542970	47.6265290	city	Bathurst	
204484685	-67.7057484	46.7384475	town	Perth-Andover	
204485996	-66.7895556	45.9678168	town	Island View	
204487880	-66.6845417	45.6735384	village	Tracy	
204488139	-66.6035176	45.6608225	village	Fredericton Junction	
204489251	-66.8269836	45.1275604	town	St. George	
204489936	-67.2798634	45.2004005	city	St. Stephen	
205495372	-73.3147505	46.1698417	village	Saint-Norbert	
205807564	-66.7900104	45.0585010	village	Blacks Harbour	
206408709	-78.5444995	44.5372969	town	Bobcaygeon	
207153672	-72.9882095	45.7739313	village	Saint-Jude	
207153673	-72.9777150	45.8541520	village	Saint-Louis	
207153675	-72.9286685	45.9111712	village	Massueville	
207153679	-72.9135130	46.0043550	village	Yamaska	
207153680	-72.8235630	46.0651320	village	Saint-François-du-Lac	
207153681	-72.8101730	46.0701340	village	Pierreville	
207153683	-72.7174760	46.1398800	village	Baie-du-Febvre	
207157918	-72.5115737	46.2714553	village	Saint-Grégoire	
207179911	-72.5564580	46.3327060	city	Trois-Rivières	134413
207181814	-72.9475020	46.2556090	town	Louiseville	7152
207484999	-63.6884186	44.7734627	town	Lower Sackville	
208850661	-73.4175110	45.2770610	village	Saint-Jacques-le-Mineur	
208987558	-73.2533401	45.3056879	city	Saint-Jean-sur-Richelieu	95114
208991089	-73.2873800	45.2113406	village	Saint-Blaise-sur-Richelieu	2050
209200736	-80.2631733	43.1408157	city	Brantford	97496
210616247	-73.5932920	45.8560650	village	Saint-Roch-de-l'Achigan	
214018597	-73.8758340	45.3139778	town	Beauharnois	12000
214019283	-73.9146420	45.2463710	village	Saint-Étienne-de-Beauharnois	
214020818	-73.9977426	45.2140982	village	Saint-Louis-de-Gonzague	
214027874	-73.6188315	45.2591064	village	Saint-Rémi	
220858828	-73.6469908	45.4811545	town	Hampstead	
224415726	-74.1580580	45.8943090	town	Saint-Sauveur	
235572766	-80.3779366	43.7059439	town	Fergus	
236053950	-52.7151490	47.5617010	city	St. John's	106170
236358552	-79.0205378	48.2420524	city	Rouyn-Noranda	42334
240997338	-80.7562977	43.1301111	city	Woodstock	40404
240997771	-80.8821100	43.0377250	town	Ingersoll	
241578741	-106.3764950	51.9958740	village	Clavet	
243705574	-70.9249880	46.3765440	town	Vallée-Jonction	1972
243705669	-70.8779530	46.3101810	town	Saint-Joseph-de-Beauce	
243794868	-81.0952892	44.2987400	town	Chesley	
243794886	-81.1462111	44.4775884	village	Tara	
243794937	-81.3715844	44.4957386	town	Southampton	
243795260	-81.2726203	44.3060195	town	Paisley	
244221671	-74.5891426	46.1158800	town	Mont-Tremblant	
245088097	-71.6514590	48.5488870	city	Alma	30776
245454424	-73.4528307	45.7326055	town	Repentigny	84285
245454425	-73.3581160	45.8266460	village	Saint-Sulpice	
245454429	-73.1747099	46.0828098	village	Berthierville	
245454432	-73.0164873	46.2282338	village	Maskinongé	
245517446	-71.1753274	46.7910096	city	Lévis	143414
245812567	-73.9043321	45.5372581	town	Deux-Montagnes	
246842649	-56.1768672	46.7775497	town	Saint-Pierre	5456
248128004	-114.8858477	49.7332695	town	Sparwood	
248829055	-80.5222961	43.4652699	city	Waterloo	104986
249423125	-78.2721953	44.4233365	town	Lakefield	
249426909	-71.3584717	46.8063745	town	L'Ancienne-Lorette	16543
249640576	-79.8956680	43.3314210	town	Waterdown	
249641396	-79.6511553	43.2079674	village	Winona	
249641649	-79.9546341	43.2661904	town	Dundas	
249643435	-79.9161804	43.1561412	village	Mount Hope	
249644463	-79.8040010	43.1210340	village	Binbrook	
249721166	-108.0390948	50.8330462	town	Kyle	
250632298	-73.8494110	45.9516270	village	Saint-Calixte	
250634445	-73.7100130	45.9624229	village	Sainte-Julienne	
250634998	-73.8886371	46.0727975	village	Chertsey	
251279659	-76.5961339	44.4090269	village	Sydenham	
251826319	-73.2294969	45.2067857	village	Sainte-Anne-de-Sabrevois	1889
252012303	-73.1593320	45.3364610	village	Mont-Saint-Grégoire	
252013045	-73.0651582	45.3232056	village	Sainte-Brigide-d'Iberville	
252019637	-72.3556847	45.2036434	village	Bolton-Est	
252025539	-73.4467466	45.5172382	city	Longueuil	234352
252148651	-73.2993215	45.0666905	village	Noyan	1354
252150730	-73.0439760	45.0327740	village	Saint-Armand	
252152716	-73.1173117	45.2392195	village	Saint-Alexandre-d'Iberville	
252153674	-73.1469091	45.1251126	village	Saint-Sébastien	
252174294	-73.8386827	45.6130352	town	Boisbriand	26884
252174581	-73.8052338	45.6323155	town	Rosemère	
252174942	-73.8362379	45.6342923	town	Sainte-Thérèse	25989
252174981	-73.8761900	45.6793200	town	Blainville	56863
252175057	-73.8929714	45.5646052	town	Saint-Eustache	44008
252344877	-74.0131760	45.7754260	city	Saint-Jérôme	68456
252975043	-73.4820525	45.8496673	village	L'Épiphanie	
252981146	-73.4222086	45.8307051	town	L'Assomption	22429
253421090	-83.0353434	42.3170990	city	Windsor	217188
253682646	-119.1185658	53.8888135	town	Grande Cache	3571
253885664	-64.0528919	44.6433788	village	Hubbards	
254023814	-83.0606534	42.2450635	town	LaSalle	
254023816	-82.8861974	42.3117951	town	Tecumseh	
254447287	-82.1853837	42.4057219	city	Chatham	103671
254504634	-106.7129063	51.8828657	village	Whitecap Dakota First Nation	
254504779	-81.4321521	42.9452837	village	Komoka	
254516011	-81.6503724	42.7973867	village	Appin	
254516016	-81.7111590	42.7481918	town	Glencoe	
254516021	-81.7993229	42.6845630	village	Newbury	439
254518215	-81.9771193	42.5518069	village	Thamesville	930
254522356	-81.7558728	42.6596653	village	Wardsville	
255027436	-114.1633325	49.5855729	village	Lundbreck	
255358086	-114.4843126	51.2439867	village	Cochrane Lake	
255467232	-79.5645504	44.1142812	town	Bradford	
255467388	-79.4914422	44.1015214	village	Holland Landing	
256631286	-123.0737831	49.3207133	city	North Vancouver	48200
256800790	-123.0579384	49.0846258	city	Delta	102238
257763652	-80.5265663	43.1708099	village	Princeton	
257763716	-80.3842810	43.1932340	town	Paris	
258480507	-64.2132284	45.8347665	town	Amherst	9413
258960896	-115.3010387	49.3710945	village	Jaffray	810
259074350	-70.5559160	46.9826328	city	Montmagny	
259232031	-69.8074463	47.5266271	town	Saint-Pascal	
259233103	-69.7322850	47.5899570	village	Sainte-Hélène-de-Kamouraska	
259233734	-69.6239716	47.6832387	village	Saint-Alexandre	
259235900	-69.5368025	47.8358164	city	Rivière-du-Loup	19974
259244605	-69.1699220	48.1221010	town	Trois-Pistoles	
259741526	-73.1571717	45.7861328	village	St-Denis-Sur-Richelieu	
259741791	-73.0498120	45.6656460	village	La Présentation	
260034778	-80.4927815	43.4512910	city	Kitchener	233222
260223568	-81.8707447	42.6309355	village	Bothwell	
260233622	-82.5996998	42.0531166	town	Leamington	
260234802	-82.8215468	42.1744783	town	Essex	
260286524	-68.5299680	48.4501550	city	Rimouski	46860
260973310	-67.4315171	48.4656706	town	Amqui	
261616948	-80.4292701	43.1032142	village	Burford	
262231839	-73.2532908	45.4778144	village	Saint-Mathias-sur-Richelieu	
262409818	-63.3000060	45.3666680	town	Truro	
262431173	-117.0521866	49.6063313	village	Harrop	
262732722	-78.7249300	44.9254436	town	Minden	
264043431	-75.7970312	44.9807226	village	Burritts Rapids	
264126978	-72.8366090	45.0560610	village	Frelighsburg	1096
264129568	-72.9887010	45.1205370	town	Bedford	2900
264130521	-73.0301505	45.1710291	village	Notre-Dame de Stanbridge	
264586449	-73.3395943	45.5930624	town	Sainte-Julie	29881
264590392	-73.3391798	45.5256161	town	Saint-Bruno-de-Montarville	26394
265754321	-79.9339487	44.7688035	town	Penetanguishene	
265755189	-79.8857120	44.7501470	town	Midland	16864
265757661	-79.7336240	44.4475856	village	Midhurst	3000
265765199	-79.8661611	44.5837294	town	Elmvale	
265767329	-80.0203156	44.5224813	town	Wasaga Beach	
265972833	-79.1867761	44.2577466	village	Udora	
265972834	-79.2039423	44.3130459	village	Pefferlaw	
266447172	-79.9264371	44.6540067	village	Wyevale	
266449369	-80.0629904	44.7965920	village	Thunder Beach	
266456829	-77.4152826	45.5541693	village	Killaloe	
266590099	-76.2487294	44.8992423	town	Perth	
266831520	-82.4624556	42.0947456	village	Wheatley	
267050359	-74.2507550	46.1493940	village	Lantier	
267273530	-75.9292600	45.6399680	village	Wakefield	
267538648	-79.8828170	43.5136710	town	Milton	110128
267612976	-114.0908391	52.3056132	town	Sylvan Lake	
267943963	-79.2242792	45.5547493	village	Kearney	798
268148288	-122.9543022	50.1171903	town	Whistler	9824
268854252	-79.9821917	43.4871704	village	Campbellville	
268961137	-71.5231551	48.4469129	village	Larouche	
268961140	-71.6530280	48.4719308	village	Saint-Bruno	
268961225	-71.5498338	48.5881118	village	St-Nazaire	
268961655	-71.0856828	48.5333057	village	Saint-Honoré	
268961737	-71.1110690	48.6215630	village	Saint-David-de-Falardeau	
269838514	-124.0746545	49.2507112	town	Lantzville	3601
270954634	-81.8696455	42.8208904	village	Alvinston	
270954839	-81.8802713	42.9480988	village	Watford	
270956248	-81.8529319	43.1639393	village	Thedford	
272019420	-74.0124890	45.6234020	town	Mirabel	41957
273194100	-74.0736010	45.8708880	town	Prévost	
273198670	-74.1360860	45.9532980	town	Sainte-Adèle	
273275339	-73.7562419	45.6713243	town	Bois-des-Filion	
273509469	-74.6342778	45.9758192	village	Huberdeau	
273513149	-74.5466855	45.9427768	village	Montcalm	
273521036	-74.5585055	45.8432991	village	Harrington	
273526596	-74.4046061	45.6765160	village	Brownsburg-Chatham	
273649926	-122.2835833	49.1589351	town	Mission	38833
273979955	-74.2496630	45.9024084	village	Morin Heights	
274069927	-79.6765713	44.6502303	village	Moonstone	
274076515	-79.6226275	45.1164601	village	Port Sandfield	
274085531	-79.4293283	45.2021768	village	Raymond	
274090741	-78.9264710	45.3679792	village	Oxtongue Lake	
274107537	-72.7467621	46.5389609	city	Shawinigan	56434
274107628	-72.6175690	46.6772390	village	Hérouxville	
274108579	-72.5622940	46.7297420	town	Saint-Tite	
274109367	-72.5008541	46.6660035	village	Saint-Séverin	
274109672	-72.2948460	46.6145450	village	Saint-Prosper-de-Champlain	
274114618	-69.8779453	47.8444773	village	Saint-Siméon	
274114677	-69.7288510	48.1051390	village	Baie-Sainte-Catherine	
274115372	-70.1538850	47.6575250	town	La Malbaie	
274115796	-70.5054470	47.4443430	town	Baie-Saint-Paul	
274122891	-74.9426730	45.6512171	village	Montebello	
274379543	-71.1381470	46.8495417	village	Sainte-Pétronille	
274560364	-63.6629818	45.8498385	village	Pugwash	
274561020	-63.2879017	45.7109353	village	Tatamagouche	
274661080	-64.1859477	46.1568822	village	Shemogue	
274834585	-62.8396757	44.7120866	village	Little Harbour	
274840607	-70.2012630	48.2351930	village	L'Anse-Saint-Jean	
275074309	-71.3539784	46.8572560	village	Wendake	2134
275978853	-74.4804645	46.1137385	village	Saint-Faustin-Lac-Carré	
276016988	-74.3401388	45.6560478	town	Lachute	
276082744	-71.5759535	46.6637436	village	Saint-Antoine de Tilly	
276289844	-71.0691830	48.4059590	city	Saguenay	145949
276310516	-79.1709961	45.6451981	village	Sand Lake	
277316079	-75.4968899	46.5524071	city	Mont-Laurier	
277318232	-75.1426952	46.4965020	village	Lac-Saguay	
277323741	-77.1411900	44.0077172	town	Picton	
277663878	-64.9438288	45.6030519	village	Alma	
277671784	-114.8382428	51.2836776	village	Waiparous	
277671785	-114.8040580	51.2843365	village	Benchlands	
277697616	-76.7756561	44.1830254	village	Bath	
278031207	-78.8635324	43.8975558	city	Oshawa	159458
278303914	-82.9183594	42.0355860	town	Harrow	
278557184	-64.3154816	44.3774954	town	Lunenburg	
279219544	-97.4225553	49.8636664	village	South Headingley	
279743125	-64.5170033	45.8992863	town	Dorchester	
279752322	-64.0573285	45.6420091	town	Springhill	
279878305	-82.9323580	41.9855250	village	Colchester	
279884473	-82.7396606	42.0378963	town	Kingsville	21552
279899172	-82.4322682	42.2593155	town	Tilbury	
280316859	-73.2816313	45.7463631	village	Calixa-Lavallée	
280323683	-73.1579983	45.8909249	village	Saint-Roch-de-Richelieu	
280333802	-73.4526144	45.6050197	town	Boucherville	
280354309	-80.2508592	43.2453004	village	St George	
280625323	-71.7300800	46.6765320	town	Donnacona	
280625325	-71.5848540	46.6981990	village	Neuville	
281118024	-75.0295392	46.3938122	village	Nominingue	
281357848	-71.6329190	46.5402070	town	Laurier-Station	
281357851	-71.7362982	46.6219924	town	Sainte-Croix	
281357857	-71.0671230	46.6920770	town	Saint-Henri	
281357930	-71.2968060	46.9444030	town	Lac-Beauport	
281357937	-71.5961840	46.5135160	village	Saint-Flavien	
281357942	-71.5292360	46.4674240	village	Dosquet	
281651420	-71.0105418	46.8293593	village	Beaumont	
281754024	-64.4440525	45.6925999	village	Joggins	
281857554	-70.8649060	46.6006290	village	Sainte-Claire	
281857555	-70.8051680	46.6548560	village	Saint-Lazare	
281857557	-70.9705238	46.6296389	town	Saint-Anselme	
281857563	-70.8891841	46.7143985	village	Saint-Gervais	
281857580	-70.9091639	46.8740536	village	Saint-Michel	
281857581	-70.7312726	46.9265054	village	Berthier-sur-Mer	
281857584	-70.8559800	46.8350660	village	La Durantaye	
281857585	-70.9407810	46.7723200	village	Saint-Charles-de-Bellechasse	
281857586	-70.8233640	46.8925780	village	Saint-Vallier	
281857587	-70.7145310	46.8871810	village	Saint-François-de-la-Rivière-du-Sud	
281857908	-71.1944960	47.0025000	town	Sainte-Brigitte-de-Laval	
282388860	-121.9514307	49.1576770	city	Chilliwack	83788
283527901	-69.7174574	48.1433429	village	Tadoussac	
283707361	-115.1472472	50.9174149	village	Kananaskis Village	
283855011	-74.3019608	45.4794481	town	Rigaud	
284006122	-77.4349042	44.0591203	village	Ameliasburg	
284056892	-69.4040680	48.3462100	village	Les Escoumins	
285349003	-74.2219160	46.3187180	village	Saint-Donat-de-Montcalm	4200
286046041	-75.2749125	45.2742012	town	Embrun	8669
286048983	-75.0867460	45.3135290	town	Casselman	3642
286049265	-75.1217996	45.2546832	village	St. Albert	
286079006	-75.1527496	45.2184775	village	Crysler	
286699608	-65.7281309	49.2276594	village	Saint-Maxime-du-Mont-Louis	
286883445	-82.7441915	42.1284542	village	Cottam	
286894978	-74.7287030	45.0184417	city	Cornwall	46867
286896588	-78.5087406	45.0464422	town	Haliburton	
287483837	-78.8939357	45.2438734	village	Dorset	400
287784193	-70.0350950	47.3695240	town	La Pocatière	
287784194	-70.3664461	47.1316736	village	L'Islet-sur-Mer	
287784195	-70.2692296	47.2144457	village	Saint-Jean-Port-Joli	
287784197	-70.4581974	47.0373320	village	Cap-Saint-Ignace	
287784198	-70.1775045	47.3111669	village	Saint-Roch-des-Aulnaies	
287784521	-69.9520110	47.4062500	village	Saint-Pacôme	
287784747	-70.0180938	47.4324048	village	Rivière-Ouelle	
288060532	-69.8847200	47.4684860	village	Saint-Philippe-de-Néri	
288060542	-69.9377931	47.5023086	village	Saint-Denis-De La Bouteillerie	
288060558	-69.8668670	47.5667970	village	Kamouraska	
288060562	-69.7280115	47.6740589	village	Saint-André	
288060563	-69.6105212	47.7672259	village	Notre-Dame-du-Portage	
288363491	-115.0139347	53.6021742	village	Evansburg	
288535273	-99.9690366	50.6235548	village	Onanole	
289276390	-70.2198030	47.1803790	village	Saint-Aubert	
289276991	-70.1298520	47.1957780	village	Saint-Damase	
289276992	-69.9849097	47.0950056	village	Tourville	
289276995	-69.9272920	47.0574930	village	Sainte-Perpétue	
289276997	-69.7803500	46.9615110	village	Saint-Pamphile	
289277002	-69.8984530	46.8644160	village	Saint-Adalbert	
289277003	-70.0234220	46.7379780	village	Sainte-Lucie-de-Beauregard	
289277004	-70.0014500	46.6970220	village	Lac-Frontière	198
289277007	-70.0941470	46.5673580	village	Saint-Just-de-Bretenières	709
289277010	-70.2129360	46.4941380	village	Saint-Camille-de-Lellis	
289277014	-70.3482060	46.4104050	village	Sainte-Justine	
289277020	-70.4270505	46.3197847	village	Sainte-Rose-de-Watford	
289830825	-116.9825369	53.2341205	village	Robb	
290516896	-70.6562051	45.9592501	village	Saint-Martin	
290517004	-70.6417470	45.8534340	village	Saint-Gédéon-de-Beauce	
290517043	-70.8315496	45.5726082	village	Frontenac	
290517066	-70.9469078	45.5516158	village	Marston	
290517110	-70.9684744	45.7818928	village	Saint-Sébastien	
290717288	-72.0023350	46.2487250	village	Saint-Louis-de-Blandford	
290717292	-71.8206490	46.1067126	village	Saint-Norbert-D'Arthabaska	1166
290717305	-71.5999278	45.9725466	village	Saint-Fortunat	
290807847	-80.5355526	43.8309446	town	Arthur	
290859021	-72.1108250	46.2968990	village	Lemieux	
290859028	-72.1799576	46.3236475	village	Sainte-Marie-de-Blandford	
290859030	-72.2743234	46.4026464	village	Gentilly	
290859034	-72.2035220	46.5028820	village	Saint-Pierre-les-Becquets	
290859038	-72.1142580	46.5567360	village	Deschaillons-sur-Saint-Laurent	
290859040	-71.9989848	46.5708068	village	Leclercville	
290862881	-71.9352468	46.6158722	village	Lotbinière	
290862882	-71.2133790	46.5867100	town	Saint-Lambert-de-Lauzon	
291130859	-70.9376910	46.5106800	village	Sainte-Marguerite	
291131061	-70.7667160	46.5317050	village	Saint-Malachie	
291131143	-70.6617549	46.5526259	village	Saint-Nazaire	
291131151	-70.5455802	46.6196931	village	Notre-Dame-Auxiliatrice-de-Buckland	
291146385	-70.4546360	46.6828920	village	Saint-Philémon	
291146395	-70.3611862	46.7301196	village	Saint-Paul-de-Montminy	
291146398	-70.1958750	46.8069944	village	Sainte-Apolline	
291146399	-70.0608687	46.8980117	village	Saint-Marcel	
291146404	-69.9495062	46.9653717	village	Sainte-Félicité	
291146408	-70.2726750	47.0364390	village	Saint-Cyrille-de-Lessard	
291955274	-71.1357880	46.8968010	town	Boischatel	4751
292779234	-70.3921510	46.8259050	village	Notre-Dame-du-Rosaire	
292779235	-70.1470180	46.6550920	village	Saint-Fabien-de-Panet	
292779579	-70.2905270	46.5772710	village	Saint-Magloire	
292779581	-70.5871580	46.7445660	village	Armagh	
292779584	-70.7553860	46.7955940	village	Saint-Raphaël	
292783052	-73.4977437	45.6309797	town	Montréal-Est	
292806407	-76.0212062	44.9013316	town	Smiths Falls	
293057156	-115.4008258	54.7180657	town	Swan Hills	1465
293291427	-63.9134501	44.9368252	village	Cameron Lake	
293302612	-73.6921690	46.1850600	village	Saint-Alphonse-Rodriguez	
293305736	-76.1887460	44.6989790	village	Portland	
293306454	-76.0605920	45.0406281	village	Franktown	
293306455	-76.0367200	45.3451480	village	Carp	
293540850	-76.4401090	44.1935658	village	Marysville	
294955282	-79.1151352	45.1497562	village	Baysville	
297091777	-70.6571960	46.6256280	village	Saint-Damien-de-Buckland	
297091780	-70.6180570	46.4785370	village	Saint-Léon-de-Standon	
297091781	-70.5081940	46.3988040	town	Lac-Etchemin	
297091785	-70.3289790	46.2670030	village	Saint-Louis-de-Gonzague	
297091793	-70.3639980	46.1265560	village	Saint-Zacharie	
297091794	-70.5233714	46.0594665	village	Saint-Côme-Linière	
298853247	-76.1207430	44.8926553	village	Port Elmsley	
299611717	-123.4939645	48.4234135	town	Colwood	16859
299790200	-73.6103642	45.4972159	city	Montréal	1900000
300062441	-73.8188550	45.7641700	town	Sainte-Anne-des-Plaines	14421
300421582	-81.4209222	42.9081286	village	Delaware	
300476648	-81.2531447	42.8031625	village	Talbotville	
300476649	-81.2121712	42.6660437	town	Port Stanley	
300476650	-81.1896514	42.7059026	village	Union	
300476653	-80.9836580	42.7732270	town	Aylmer	
300476654	-81.0586953	42.9886863	town	Dorchester	
300479055	-80.4983709	42.8544957	town	Delhi	
300479056	-80.3039146	42.8372434	town	Simcoe	14777
300479058	-80.1139414	42.8844706	village	Jarvis	
300777981	-71.4569733	46.7433540	town	Saint-Augustin-de-Desmaures	18820
302158656	-71.3012700	46.0913290	city	Thetford Mines	25709
302159088	-71.0712430	46.5047730	village	Scott	
302298315	-62.6538278	46.1708855	town	Montague	
302745279	-70.8583830	47.1178030	village	Saint-Ferréol-les-Neiges	2223
302748081	-64.4011109	48.5150409	village	Val-d'Espoir	
302860675	-64.3838149	48.7665246	village	Douglastown	
302861916	-64.3275925	48.4270801	village	Cap d'Espoir	
302862139	-64.4953057	48.3984807	village	Grande-Rivière	
302862740	-64.3060308	48.9341764	village	L'Anse-au-Griffon	
302863044	-64.4182151	49.0131657	village	Petite-Rivière-au-Renard	
302863110	-64.4410861	49.0288393	village	Petit-Cap	
302878811	-68.7126160	48.3722160	village	Le Bic	
302966876	-64.6783785	48.3485676	town	Chandler	7546
302971659	-70.9476470	46.2233150	village	Saint-Jules	
302971661	-70.9946820	46.2717490	village	Tring-Jonction	
302971668	-70.9751130	46.2971370	village	Saint-Frédéric	
302971678	-70.6757350	46.3580650	village	Saint-Odilon-de-Cranbourne	
302971682	-70.4810710	46.2116750	town	Saint-Prosper	
302971691	-70.6015780	46.2793430	village	Saint-Benjamin	
302971693	-70.8769230	46.4179790	village	Saints-Anges	
302978717	-71.7719650	46.2195150	town	Plessisville	
302978718	-71.6584672	46.2957133	village	Laurierville	
303450005	-71.2152512	46.1413855	village	Robertsonville	
303883358	-80.5975600	42.9876990	town	Norwich	
304259858	-54.6187879	48.9592291	town	Gander	
304272573	-61.8661579	47.3774363	village	Cap-aux-Meules	
304398892	-72.2361370	45.9924357	village	Sainte-Clotilde-de-Horton	
304398901	-72.3418810	46.0019700	village	Notre-Dame-du-Bon-Conseil	
304398911	-72.3748400	46.1070410	village	Saint-Léonard-d'Aston	
304398915	-72.4335480	46.2138130	village	Saint-Célestin	
304398920	-72.3250580	46.1662790	village	Saint-Wenceslas	
304398937	-72.0953750	46.0646560	village	Saint-Valère	
304641398	-81.5130620	45.9711970	village	Killarney	
304701373	-64.5669642	45.9763743	village	Memramcook	
304894021	-81.9419095	43.0043716	village	Warwick	
304895159	-82.1630285	43.0364448	village	Camlachie	
305085718	-71.5218790	46.2596772	village	Inverness	
305085721	-71.4581680	46.1829210	village	Saint-Jean-de-Brébeuf	
305085727	-71.1822885	46.0070418	village	Saint-Daniel	
305085732	-71.0762831	46.0468130	village	Saint-Méthode	
305085743	-71.5735240	46.1072790	village	Saint-Ferdinand	
305085748	-70.7914350	46.0701340	village	Saint-Benoît-Labre	
305085755	-71.0293580	46.1251290	village	Sainte-Clotilde-de-Beauce	
305085761	-71.0757060	46.2166640	village	East Broughton	
305085763	-71.2082290	46.2444510	village	Saint-Pierre-de-Broughton	
305085766	-71.4094160	46.3841230	village	Sainte-Agathe-de-Lotbinière	
305085767	-71.0904690	46.5850580	village	Saint-Isidore	3017
305085771	-70.8281710	45.9604580	village	Saint-Honoré-de-Shenley	
305085775	-71.1765392	46.1335300	village	Sacré-Cœur-de-Marie	
305085779	-71.3802340	46.2202270	village	Kinnear's Mills	
305085781	-71.3376620	46.2883590	village	Saint-Jacques-de-Leeds	
305085787	-71.2537130	46.1545742	village	Pontbriand	
305085791	-71.2374110	46.4113520	village	Saint-Patrice-de-Beaurivage	
305550666	-71.3805770	45.8340620	village	Beaulac-Garthby	
305550668	-70.9418110	45.9404070	village	Saint-Évariste-de-Forsyth	
305550670	-71.0929146	45.7852352	village	Saint-Romain	
305550671	-71.3533259	45.6098627	village	Sainte-Marguerite-de-Lingwick	
305550673	-71.2766660	45.5247549	village	Scotstown	
305550674	-71.1226629	45.5897389	village	Milan	
305551086	-71.5354160	45.8565430	village	Saints-Martyrs-Canadiens	
305551089	-71.6459660	45.9031500	village	Ham-Nord	
305551091	-71.7359160	45.9057780	village	Notre-Dame-de-Ham	
